OSEBuildingID,BuildingType,PrimaryPropertyType,PropertyName,Address,City,Neighborhood,Latitude,Longitude,YearBuilt,NumberofFloors,PropertyGFAParking,PropertyGFABuilding(s),LargestPropertyUseType,LargestPropertyUseTypeGFA,SiteEnergyUse(kBtu),SiteEnergyUseWN(kBtu),DefaultData,ComplianceStatus,BuildingAge,log_surface,Size_S,Size_M,Size_L,Size_XL,Size_XXL,surface_per_floor,Nhood_CENTRAL,Nhood_DELRIDGE,Nhood_DOWNTOWN,Nhood_EAST,Nhood_GREATER DUWAMISH,Nhood_LAKE UNION,Nhood_MAGNOLIA / QUEEN ANNE,Nhood_NORTH,Nhood_NORTHEAST,Nhood_NORTHWEST,Nhood_Other,Nhood_SOUTHEAST,Nhood_SOUTHWEST
1,NonResidential,Hotel,Mayflower park hotel,405 Olive way,Seattle,DOWNTOWN,47.6122,-122.33799,1927,12,0,88434,Hotel,88434.0,7226362.5,7456910.0,False,Compliant,98,11.390023097868895,False,False,True,False,False,7369.5,False,False,True,False,False,False,False,False,False,False,False,False,False
2,NonResidential,Hotel,Paramount Hotel,724 Pine street,Seattle,DOWNTOWN,47.61317,-122.33393,1996,11,15064,88502,Hotel,83880.0,8387933.0,8664479.0,False,Compliant,29,11.39079172872657,False,False,True,False,False,8045.636363636364,False,False,True,False,False,False,False,False,False,False,False,False,False
3,NonResidential,Hotel,5673-The Westin Seattle,1900 5th Avenue,Seattle,DOWNTOWN,47.61393,-122.3381,1969,41,196718,759392,Hotel,756493.0,72587024.0,73937112.0,False,Compliant,56,13.540274708933826,False,False,False,False,True,18521.756097560974,False,False,True,False,False,False,False,False,False,False,False,False,False
5,NonResidential,Hotel,HOTEL MAX,620 STEWART ST,Seattle,DOWNTOWN,47.61412,-122.33664,1926,10,0,61320,Hotel,61320.0,6794584.0,6946800.5,False,Compliant,99,11.023877640745798,False,False,True,False,False,6132.0,False,False,True,False,False,False,False,False,False,False,False,False,False
8,NonResidential,Hotel,WARWICK SEATTLE HOTEL (ID8),401 LENORA ST,Seattle,DOWNTOWN,47.61375,-122.34047,1980,18,62000,113580,Hotel,123445.0,14172606.0,14656503.0,False,Compliant,45,11.640271517759631,False,False,False,True,False,6310.0,False,False,True,False,False,False,False,False,False,False,False,False,False
9,Nonresidential COS,Other,West Precinct,810 Virginia St,Seattle,DOWNTOWN,47.61623,-122.33657,1999,2,37198,60090,Police Station,88830.0,12086616.0,12581712.0,False,Compliant,26,11.003615358893612,False,False,True,False,False,30045.0,False,False,True,False,False,False,False,False,False,False,False,False,False
10,NonResidential,Hotel,Camlin,1619 9th Avenue,Seattle,DOWNTOWN,47.6139,-122.33283,1926,11,0,83008,Hotel,81352.0,5758795.0,6062767.5,False,Compliant,99,11.326704314635162,False,False,True,False,False,7546.181818181818,False,False,True,False,False,False,False,False,False,False,False,False,False
11,NonResidential,Other,Paramount Theatre,911 Pine St,Seattle,DOWNTOWN,47.61327,-122.33136,1926,8,0,102761,Other - Entertainment/Public Assembly,102761.0,6298131.5,7067881.5,False,Compliant,99,11.540170913860424,False,False,False,True,False,12845.125,False,False,True,False,False,False,False,False,False,False,False,False,False
12,NonResidential,Hotel,311wh-Pioneer Square,612 2nd Ave,Seattle,DOWNTOWN,47.60294,-122.33263,1904,15,0,163984,Hotel,163984.0,13723820.0,14194054.0,False,Compliant,121,12.007530239208668,False,False,False,True,False,10932.266666666666,False,False,True,False,False,False,False,False,False,False,False,False,False
15,NonResidential,Hotel,Hotel Monaco Seattle,1101 4th Avenue,Seattle,DOWNTOWN,47.60695,-122.33414,1969,11,19279,133884,Hotel,133884.0,16016644.0,16646930.0,False,Compliant,56,11.804736501505687,False,False,False,True,False,12171.272727272728,False,False,True,False,False,False,False,False,False,False,False,False,False
16,NonResidential,Hotel,5679-W Seattle,1112 Fourth Avenue,Seattle,DOWNTOWN,47.60713,-122.33323,1998,25,61161,272015,Hotel,336640.0,26941110.0,27070114.0,False,Compliant,27,12.51361616707751,False,False,False,False,True,10880.6,False,False,True,False,False,False,False,False,False,False,False,False,False
17,NonResidential,Hotel,Executive Pacific Plaza,400 Spring Street,Seattle,DOWNTOWN,47.60699,-122.33346,1928,9,0,65009,Hotel,65009.0,6596057.5,6358719.5,False,Compliant,97,11.082296383198514,False,False,True,False,False,7223.222222222223,False,False,True,False,False,False,False,False,False,False,False,False,False
18,NonResidential,Hotel,Crowne Plaza Hotel Seattle,1113 6th Ave,Seattle,DOWNTOWN,47.60809,-122.33212,1980,33,57600,258352,Hotel,295511.0,22325364.0,22524948.0,False,Compliant,45,12.462082145801965,False,False,False,False,True,7828.848484848485,False,False,True,False,False,False,False,False,False,False,False,False,False
19,NonResidential,Hotel,Hotel Vintage Seattle,1100 5th Avenue,Seattle,DOWNTOWN,47.60755,-122.33244,1922,11,25200,66990,Hotel,67390.0,10750010.0,11179203.0,False,Compliant,103,11.112313560992032,False,False,True,False,False,6090.0,False,False,True,False,False,False,False,False,False,False,False,False,False
21,Nonresidential COS,Other,The Seattle Public Library - Central Library,1000 Fourth Avenue,Seattle,DOWNTOWN,47.60649,-122.33297,2004,11,57000,355000,Library,364913.0,18588860.0,18706912.0,False,Compliant,21,12.779875885354993,False,False,False,False,True,32272.727272727272,False,False,True,False,False,False,False,False,False,False,False,False,False
22,NonResidential,Other,Downtown Seattle YMCA,909 4th Avenue,Seattle,DOWNTOWN,47.60546,-122.33279,1930,6,0,103911,Fitness Center/Health Club/Gym,90000.0,9956396.0,10192124.0,False,Compliant,95,11.55129966608712,False,False,False,True,False,17318.5,False,False,True,False,False,False,False,False,False,False,False,False,False
23,NonResidential,Hotel,Renaissance Seattle Hotel,515 Madison Street,Seattle,DOWNTOWN,47.60681,-122.33078,1983,28,85000,331281,Hotel,348329.0,33556756.0,34351920.0,False,Compliant,42,12.71072525539031,False,False,False,False,True,11831.464285714286,False,False,True,False,False,False,False,False,False,False,False,False,False
24,NonResidential,Mixed Use Property,The Rainier Club,820 4th Ave.,Seattle,DOWNTOWN,47.60515,-122.33159,1907,5,0,57452,Social/Meeting Hall,16442.0,7606084.5,7877219.0,False,Compliant,118,10.95872250123467,False,False,True,False,False,11490.4,False,False,True,False,False,False,False,False,False,False,False,False,False
25,NonResidential,Hotel,Arctic Club Seattle,700 3rd Ave,Seattle,DOWNTOWN,47.60376,-122.33194,1916,10,0,104352,Hotel,104352.0,10154608.0,10154608.0,False,Compliant,109,11.555534661493144,False,False,False,True,False,10435.2,False,False,True,False,False,False,False,False,False,False,False,False,False
26,NonResidential,Other,King County Courthouse,516 3RD AVE,Seattle,DOWNTOWN,47.60265,-122.33051,1916,10,0,540360,Courthouse,537150.0,44984468.0,47023088.0,False,Compliant,109,13.199992713700011,False,False,False,False,True,54036.0,False,False,True,False,False,False,False,False,False,False,False,False,False
27,NonResidential,Other,King County Correctional Facility,500 5TH AVE,Seattle,DOWNTOWN,47.60378,-122.32842,1985,19,0,385274,Other,385274.0,47859812.0,49539212.0,False,Compliant,40,12.861712644003578,False,False,False,False,True,20277.57894736842,False,False,True,False,False,False,False,False,False,False,False,False,False
29,NonResidential,Hotel,WATERTOWN HOTEL,4242 ROOSEVELT WAY NE,Seattle,NORTHEAST,47.65959,-122.31755,2001,6,30586,58006,Hotel,58006.0,3663534.5,3673186.75,False,Compliant,24,10.968318971901319,False,False,True,False,False,9667.666666666666,False,False,False,False,False,False,False,False,True,False,False,False,False
30,NonResidential,University,Main Campus Center,1000 Lenora St.,Seattle,DOWNTOWN,47.61816,-122.33629,1928,7,0,126593,College/University,125000.0,11343686.0,12183313.0,False,Compliant,97,11.748740394204184,False,False,False,True,False,18084.714285714286,False,False,True,False,False,False,False,False,False,False,False,False,False
31,NonResidential,Other,Seattle Honda,1015 & 1017 Olive Way,Seattle,DOWNTOWN,47.615,-122.33081,1930,2,0,67224,Automobile Dealership,67224.0,1310236.625,1310236.625,False,Compliant,95,11.115800481137065,False,False,True,False,False,33612.0,False,False,True,False,False,False,False,False,False,False,False,False,False
32,NonResidential,Hotel,Homewood Suites,1011 Pike ST,Seattle,EAST,47.61301,-122.32929,1991,8,30301,128375,Hotel,112676.0,5328051.5,5424942.0,False,Compliant,34,11.762718736879195,False,False,False,True,False,16046.875,False,False,False,True,False,False,False,False,False,False,False,False,False
33,NonResidential,Hotel,Marriott Springhill Suites (33),1800 Yale Ave,Seattle,DOWNTOWN,47.61784,-122.32966,2001,10,38281,133585,Hotel,128909.0,11061916.0,11171407.0,False,Compliant,24,11.80250074417462,False,False,False,True,False,13358.5,False,False,True,False,False,False,False,False,False,False,False,False,False
35,NonResidential,Hotel,Hotel Five,2200 5th ave,Seattle,DOWNTOWN,47.61558,-122.34186,1978,5,16200,52210,Hotel,47994.0,4456714.5,4557974.0,False,Compliant,47,10.863048479640058,False,False,True,False,False,10442.0,False,False,True,False,False,False,False,False,False,False,False,False,False
38,NonResidential,Small- and Mid-Sized Office,Good Shepherd Center,4649 Sunnyside Ave. N.,Seattle,LAKE UNION,47.6641,-122.33118,1906,3,0,87262,Office,40943.0,4145920.5,4703690.0,False,Compliant,119,11.376681826100373,False,False,True,False,False,29087.333333333332,False,False,False,False,False,True,False,False,False,False,False,False,False
40,NonResidential,Hotel,Silver Cloud University,5036 25th Ave NE,Seattle,NORTHEAST,47.66583,-122.29965,1994,4,0,81871,Hotel,81871.0,6668568.5,6731281.5,False,Compliant,31,11.312912331044872,False,False,True,False,False,20467.75,False,False,False,False,False,False,False,False,True,False,False,False,False
41,NonResidential,Self-Storage Facility,08781-University Village,2746 Ne 45th St Suite 100,Seattle,NORTHEAST,47.66172,-122.29598,1955,2,0,110356,Self-Storage Facility,26225.0,318364.8125,326223.0938,False,Compliant,70,11.611475844199505,False,False,False,True,False,55178.0,False,False,False,False,False,False,False,False,True,False,False,False,False
46,NonResidential,Warehouse,Seattle 11-13,3301 S NORFOLK ST,Seattle,GREATER DUWAMISH,47.51138,-122.28875,1961,2,0,714095,Non-Refrigerated Warehouse,616000.0,44731160.0,44110016.0,False,Compliant,64,13.478772686065135,False,False,False,False,True,357047.5,False,False,False,False,True,False,False,False,False,False,False,False,False
50,SPS-District K-12,K-12 School,Lawton Elementary,4000 27th Ave. W.,Seattle,MAGNOLIA / QUEEN ANNE,47.65671,-122.39047,1990,2,0,54986,K-12 School,54986.0,1650279.25,1802471.375,False,Compliant,35,10.914852072639958,False,False,True,False,False,27493.0,False,False,False,False,False,False,True,False,False,False,False,False,False
52,NonResidential,Small- and Mid-Sized Office,SBC52,5305 Shilshole Ave NW,Seattle,BALLARD,47.66587,-122.38476,1961,2,0,94900,Office,55586.0,6186461.5,6536359.5,False,Compliant,64,11.460589521950299,False,False,True,False,False,47450.0,False,False,False,False,False,False,False,False,False,False,False,False,False
53,NonResidential,Small- and Mid-Sized Office,El Centro de la Raza,2524 16th Ave S,Seattle,GREATER DUWAMISH,47.58034,-122.31132,1900,2,0,52554,Office,51029.0,2951331.25,3150635.5,False,Compliant,125,10.869615519257454,False,False,True,False,False,26277.0,False,False,False,False,True,False,False,False,False,False,False,False,False
54,NonResidential,K-12 School,Blanchet High School,8200 Wallingford Ave. N,Seattle,NORTHWEST,47.68891,-122.33553,1954,3,0,175015,K-12 School,175015.0,6994740.5,7886505.5,False,Compliant,71,12.072632677297742,False,False,False,True,False,58338.333333333336,False,False,False,False,False,False,False,False,False,True,False,False,False
55,NonResidential,Self-Storage Facility,Vine Street,11 Vine Street,Seattle,DOWNTOWN,47.61351,-122.35129,1911,3,0,70586,Self-Storage Facility,38439.0,2158629.0,2331573.25,False,Compliant,114,11.164601270548886,False,False,True,False,False,23528.666666666668,False,False,True,False,False,False,False,False,False,False,False,False,False
56,NonResidential,Hotel,Seattle Hilton Hotel,1301 Sixth Ave,Seattle,DOWNTOWN,47.60946,-122.33337,1969,24,205970,126240,Hotel,348630.0,16163194.0,16163194.0,False,Compliant,56,11.745948057467846,False,False,False,True,False,5260.0,False,False,True,False,False,False,False,False,False,False,False,False,False
57,NonResidential,Large Office,5th and Pine,413 Pine Street,Seattle,DOWNTOWN,47.6113,-122.33659,1973,5,0,168115,Office,103362.0,9536161.0,9536161.0,False,Compliant,52,12.03240949630686,False,False,False,True,False,33623.0,False,False,True,False,False,False,False,False,False,False,False,False,False
58,NonResidential,Other,1525 4th Avenue,1525 4th Ave,Seattle,DOWNTOWN,47.61076,-122.33765,1920,2,0,57428,Other - Mall,51747.0,1247362.0,1239429.75,False,Compliant,105,10.958304681204567,False,False,True,False,False,28714.0,False,False,True,False,False,False,False,False,False,False,False,False,False
59,NonResidential,Small- and Mid-Sized Office,Gibraltar Tower,1520 3rd Ave,Seattle,DOWNTOWN,47.61048,-122.33794,1910,8,0,59400,Office,34947.0,5071974.0,5242479.5,False,Compliant,115,10.992066340225865,False,False,True,False,False,7425.0,False,False,True,False,False,False,False,False,False,False,False,False,False
60,NonResidential,Mixed Use Property,Mann Building,1401 3rd Avenue,Seattle,DOWNTOWN,47.60886,-122.33744,1926,2,0,52549,Other - Entertainment/Public Assembly,23500.0,15026196.0,15683742.0,False,Compliant,99,10.869520376305097,False,False,True,False,False,26274.5,False,False,True,False,False,False,False,False,False,False,False,False,False
62,NonResidential,Hotel,Roosevelt Hotel,1531 7th Ave,Seattle,DOWNTOWN,47.61233,-122.33432,1930,20,10043,88591,Hotel,83591.0,4841347.5,5078816.0,False,Compliant,95,11.391796839062748,False,False,True,False,False,4429.55,False,False,True,False,False,False,False,False,False,False,False,False,False
63,NonResidential,Hotel,Sheraton Seattle Hotel,1400 6th Avenue,Seattle,DOWNTOWN,47.61087,-122.33339,1982,34,146694,847518,Hotel,994212.0,80469216.0,82318072.0,False,Compliant,43,13.650068536864499,False,False,False,False,True,24927.0,False,False,True,False,False,False,False,False,False,False,False,False,False
65,NonResidential,Hotel,Inn at the Market,86 Pine St,Seattle,DOWNTOWN,47.60997,-122.34138,1985,7,0,71150,Hotel,41340.0,5348309.0,5348309.0,False,Compliant,40,11.172559658233004,False,False,True,False,False,10164.285714285714,False,False,True,False,False,False,False,False,False,False,False,False,False
66,NonResidential,Hotel,Moore Hotel INC,1926 2nd Ave,Seattle,DOWNTOWN,47.61155,-122.34114,1908,7,0,122810,Hotel,88360.0,5401277.5,6088417.5,False,Compliant,117,11.718401867230671,False,False,False,True,False,17544.285714285714,False,False,True,False,False,False,False,False,False,False,False,False,False
67,NonResidential,Hotel,QUALITY INN,618 JOHN ST,Seattle,LAKE UNION,47.61986,-122.34413,1959,5,42546,70627,Hotel,70627.0,5284343.5,5428403.5,False,Compliant,66,11.165181945422688,False,False,True,False,False,14125.4,False,False,False,False,False,True,False,False,False,False,False,False,False
68,NonResidential,Hotel,Rainier Hospitality,211 Dexter Ave N,Seattle,LAKE UNION,47.62001,-122.34274,2000,7,34735,115718,Hotel,107547.0,6715187.0,6835263.5,False,Compliant,25,11.658920117504168,False,False,False,True,False,16531.14285714286,False,False,False,False,False,True,False,False,False,False,False,False,False
69,NonResidential,Hotel,Sequim Lodging Corp,226 Aurora Ave N,Seattle,LAKE UNION,47.62025,-122.34314,1997,6,28200,88100,Hotel,88490.0,5827595.5,5941927.0,False,Compliant,28,11.386239162597649,False,False,True,False,False,14683.333333333334,False,False,False,False,False,True,False,False,False,False,False,False,False
70,NonResidential,Hotel,Homewood Suites by Hilton Seattle Downtonw,206 Western Ave West,Seattle,MAGNOLIA / QUEEN ANNE,47.62023,-122.35951,1998,6,36744,118858,Hotel,155602.0,6836900.0,6849826.5,False,Compliant,27,11.685693195625964,False,False,False,True,False,19809.666666666668,False,False,False,False,False,False,True,False,False,False,False,False,False
73,NonResidential,K-12 School,Seattle Hebrew Academy,1617 Interlaken Drive East,Seattle,EAST,47.63442,-122.30793,1911,3,0,56072,K-12 School,56072.0,3234787.75,3800842.5,False,Compliant,114,10.934409692234288,False,False,True,False,False,18690.666666666668,False,False,False,True,False,False,False,False,False,False,False,False,False
77,NonResidential,Hotel,Comfort Suites Seattle Center,601 Roy St,Seattle,MAGNOLIA / QUEEN ANNE,47.62519,-122.34456,1999,4,44891,78051,Hotel,78051.0,5337334.0,5387530.0,False,Compliant,26,11.26513055021489,False,False,True,False,False,19512.75,False,False,False,False,False,False,True,False,False,False,False,False,False
82,NonResidential,Small- and Mid-Sized Office,Dept of Social & Health Services,1700 E. Cherry St,Seattle,CENTRAL,47.60823,-122.30956,1962,2,0,54984,Office,54984.0,3375211.0,3630147.25,False,Compliant,63,10.914815699745034,False,False,True,False,False,27492.0,True,False,False,False,False,False,False,False,False,False,False,False,False
84,NonResidential,Senior Care Community,PSSA - The Mount,4831 35th Ave SW,Seattle,SOUTHWEST,47.55837,-122.37751,1922,5,0,217603,Senior Care Community,296313.0,42792072.0,45547252.0,False,Compliant,103,12.290432176147913,False,False,False,False,True,43520.6,False,False,False,False,False,False,False,False,False,False,False,False,True
85,NonResidential,Senior Care Community,Foss Home and Village,13023 Greenwood Ave. N,Seattle,NORTHWEST,47.72426,-122.35599,1970,2,0,93397,Senior Care Community,93397.0,16402563.0,16959754.0,False,Compliant,55,11.444625210711436,False,False,True,False,False,46698.5,False,False,False,False,False,False,False,False,False,True,False,False,False
86,NonResidential,Hotel,SCCA - ALLIANCE HOUSE,207 Pontius Ave N,Seattle,LAKE UNION,47.61988,-122.33211,2008,6,20732,63371,Hotel,63371.0,3706100.25,3787499.0,False,Compliant,17,11.056777402494934,False,False,True,False,False,10561.833333333334,False,False,False,False,False,True,False,False,False,False,False,False,False
89,NonResidential,Medical Office,Polyclinic North && South,1200 Harvard Ave,Seattle,EAST,47.61244,-122.3214,1965,3,0,179014,Medical Office,179014.0,16701055.0,16527711.0,False,Compliant,60,12.095224880194644,False,False,False,True,False,59671.333333333336,False,False,False,True,False,False,False,False,False,False,False,False,False
95,NonResidential,Hotel,Sorrento Hotel,900 Madison St.,Seattle,EAST,47.60898,-122.32693,1908,7,0,76631,Hotel,76631.0,7258758.5,7250730.5,False,Compliant,117,11.246770023062728,False,False,True,False,False,10947.285714285714,False,False,False,True,False,False,False,False,False,False,False,False,False
96,NonResidential,Mixed Use Property,Central Seattle,921 Terry Ave.,Seattle,EAST,47.60845,-122.32637,1983,6,9341,90439,Medical Office,40174.0,15473117.0,15684371.0,False,Compliant,42,11.412441926391907,False,False,True,False,False,15073.166666666666,False,False,False,True,False,False,False,False,False,False,False,False,False
98,NonResidential,Retail Store,Firestone Store#012432,400 Westlake Ave N,Seattle,LAKE UNION,47.62237,-122.33805,1929,2,0,58320,Retail Store,72072.0,1049748.625,1243027.75,False,Compliant,96,10.973717513311941,False,False,True,False,False,29160.0,False,False,False,False,False,True,False,False,False,False,False,False,False
100,NonResidential,Large Office,City Place III - SEDO,551 Boren Ave. North,Seattle,LAKE UNION,47.62424,-122.33646,2010,5,0,316306,Office,261826.0,13795954.0,13909270.0,False,Compliant,15,12.664468539937253,False,False,False,False,True,63261.2,False,False,False,False,False,True,False,False,False,False,False,False,False
102,NonResidential,Hotel,Residence Inn Seattle - Lake Union,800 Fairview Ave. N,Seattle,LAKE UNION,47.62642,-122.33325,1990,7,44766,238097,Hotel,235788.0,19459304.0,20194606.0,False,Compliant,35,12.380437632607672,False,False,False,False,True,34013.857142857145,False,False,False,False,False,True,False,False,False,False,False,False,False
103,Nonresidential COS,Other,Key Arena,334 1st Ave. N,Seattle,MAGNOLIA / QUEEN ANNE,47.62208,-122.35398,1962,1,0,389000,Other,368000.0,23658978.0,23736924.0,False,Compliant,63,12.871337193291367,False,False,False,False,True,389000.0,False,False,False,False,False,False,True,False,False,False,False,False,False
104,Nonresidential COS,Other,Bagley Wright Theatre,151 Mercer St.,Seattle,MAGNOLIA / QUEEN ANNE,47.62208,-122.35398,1962,1,0,91213,Other,65000.0,8141155.5,8181881.0,False,Compliant,63,11.420963673053087,False,False,True,False,False,91213.0,False,False,False,False,False,False,True,False,False,False,False,False,False
106,Nonresidential COS,Other,Armory,305 Harrison St.,Seattle,MAGNOLIA / QUEEN ANNE,47.62208,-122.35398,1938,5,0,396085,Other,278500.0,20955026.0,21257836.0,False,Compliant,87,12.889386638375425,False,False,False,False,True,79217.0,False,False,False,False,False,False,True,False,False,False,False,False,False
107,NonResidential,Large Office,City Place IV - SEDO,333 Boren Ave. N.,Seattle,LAKE UNION,47.62112,-122.33629,2010,12,0,571329,Office,598801.0,39605888.0,40153432.0,False,Compliant,15,13.255722255149015,False,False,False,False,True,47610.75,False,False,False,False,False,True,False,False,False,False,False,False,False
110,Nonresidential COS,Other,Exhibition Hall,225 Mercer St.,Seattle,MAGNOLIA / QUEEN ANNE,47.62395,-122.35077,1962,2,0,52000,Other,52000.0,2726369.0,2682242.75,False,Compliant,63,10.859018228147887,False,False,True,False,False,26000.0,False,False,False,False,False,False,True,False,False,False,False,False,False
111,Nonresidential COS,Other,Mercer Arena,363 Mercer St.,Seattle,MAGNOLIA / QUEEN ANNE,47.62395,-122.35077,1928,1,0,60696,Other,108000.0,875943.3125,875943.3125,False,Compliant,97,11.013649552432474,False,False,True,False,False,60696.0,False,False,False,False,False,False,True,False,False,False,False,False,False
112,Nonresidential COS,Other,McCaw Hall,321 Mercer St.,Seattle,MAGNOLIA / QUEEN ANNE,47.62395,-122.35143,1928,2,0,262048,Other,296000.0,20723248.0,20823520.0,False,Compliant,97,12.476286788157395,False,False,False,False,True,131024.0,False,False,False,False,False,False,True,False,False,False,False,False,False
113,NonResidential,Small- and Mid-Sized Office,KCTS9,401 Mercer St,Seattle,MAGNOLIA / QUEEN ANNE,47.62391,-122.34837,1986,2,2352,63888,Office,45900.0,4166306.25,4192107.75,False,Compliant,39,11.06490248157219,False,False,True,False,False,31944.0,False,False,False,False,False,False,True,False,False,False,False,False,False
114,NonResidential,Large Office,Bill and Melinda Gates Foundation,500 5th Ave N,Seattle,MAGNOLIA / QUEEN ANNE,47.62419,-122.34443,2010,6,303707,616891,Office,729584.0,36667044.0,38105108.0,False,Compliant,15,13.332449247047506,False,False,False,False,True,102815.16666666667,False,False,False,False,False,False,True,False,False,False,False,False,False
115,NonResidential,Small- and Mid-Sized Office,J.G. Scripps Building,221 1st Ave. W,Seattle,MAGNOLIA / QUEEN ANNE,47.62053,-122.35842,1970,4,25930,50283,Office,48546.0,3476212.5,3647345.75,False,Compliant,55,10.825442214034721,False,False,True,False,False,12570.75,False,False,False,False,False,False,True,False,False,False,False,False,False
116,NonResidential,Hotel,MEDITERRANEAN INN (ID#116),425 queen anne ave N.,Seattle,MAGNOLIA / QUEEN ANNE,47.62291,-122.35708,2002,6,36934,59976,Hotel,59976.0,5155568.5,5274523.0,False,Compliant,23,11.001716434379901,False,False,True,False,False,9996.0,False,False,False,False,False,False,True,False,False,False,False,False,False
117,NonResidential,Hotel,UNIVERSITY INN,4140 ROOSEVELT WAY NE,Seattle,NORTHEAST,47.65772,-122.31756,1962,4,0,50017,Hotel,50017.0,5448975.0,5528580.5,False,Compliant,63,10.82013821962583,False,False,True,False,False,12504.25,False,False,False,False,False,False,False,False,True,False,False,False,False
119,NonResidential,K-12 School,St. Joseph K-8 School,700 18th Ave. E.,Seattle,EAST,47.62548,-122.30828,1923,3,0,67743,K-12 School,67743.0,2646879.0,3036464.0,False,Compliant,102,11.123491173934593,False,False,True,False,False,22581.0,False,False,False,True,False,False,False,False,False,False,False,False,False
120,NonResidential,K-12 School,Holy Names Academy,728 21st Ave East,Seattle,EAST,47.62644,-122.30429,1908,6,0,194104,K-12 School,194104.0,6219841.5,7204080.0,False,Compliant,117,12.176154528742888,False,False,False,True,False,32350.666666666668,False,False,False,True,False,False,False,False,False,False,False,False,False
121,NonResidential,Small- and Mid-Sized Office,2100 Building,2100 24th Ave S,Seattle,SOUTHEAST,47.58408,-122.30125,2003,3,35752,63681,Office,63681.0,4897760.0,4980737.5,False,Compliant,22,11.06165722706025,False,False,True,False,False,21227.0,False,False,False,False,False,False,False,False,False,False,False,True,False
131,NonResidential,Other,Lakeview,1208 NE 64th st,Seattle,NORTHEAST,47.67524,-122.31534,1941,4,0,56521,Other,49000.0,6357632.0,6367210.0,False,Compliant,84,10.94238522187658,False,False,True,False,False,14130.25,False,False,False,False,False,False,False,False,True,False,False,False,False
132,NonResidential,Other,Roosevelt Square,6417 Roosevelt Way NE # 18-28,Seattle,NORTHEAST,47.67559,-122.31769,1929,2,0,206934,Other,119146.0,4253577.5,4384625.5,False,Compliant,96,12.240160013274313,False,False,False,False,True,103467.0,False,False,False,False,False,False,False,False,True,False,False,False,False
136,NonResidential,Hotel,Holiday Inn Express North Seattle Shoreline,14115 Aurora Ave N,Seattle,NORTHWEST,47.73141,-122.3458,2001,4,0,51390,Hotel,51390.0,3611538.0,3616214.0,False,Compliant,24,10.847218338835674,False,False,True,False,False,12847.5,False,False,False,False,False,False,False,False,False,True,False,False,False
138,SPS-District K-12,K-12 School,Ingraham High,1819 N. 135th St.,Seattle,NORTHWEST,47.7257,-122.33684,1959,1,0,245587,K-12 School,245587.0,11765682.0,12870916.0,False,Compliant,66,12.411410614126586,False,False,False,False,True,245587.0,False,False,False,False,False,False,False,False,False,True,False,False,False
139,NonResidential,Hotel,7066-Seattle-Northgate,13300 Stone Avenue N,Seattle,NORTHWEST,47.72551,-122.3423,2002,3,0,69138,Hotel,70609.0,3242458.0,3323400.5,False,Compliant,23,11.14387424996344,False,False,True,False,False,23046.0,False,False,False,False,False,False,False,False,False,True,False,False,False
144,NonResidential,Hotel,Alexis Hotel,1007 First Ave.,Seattle,DOWNTOWN,47.6048,-122.3368,1904,5,0,190980,Hotel,190980.0,6505995.0,6505995.0,False,Compliant,121,12.159929225640868,False,False,False,True,False,38196.0,False,False,True,False,False,False,False,False,False,False,False,False,False
145,Nonresidential COS,Other,Benaroya Hall,200 University Street,Seattle,DOWNTOWN,47.60804,-122.3367,1998,6,0,284100,Other - Entertainment/Public Assembly,189750.0,14641502.0,14881950.0,False,Compliant,27,12.557085087723449,False,False,False,False,True,47350.0,False,False,True,False,False,False,False,False,False,False,False,False,False
147,NonResidential,Hospital,Swedish Ballard,5300 Tallman Ave NW,Seattle,BALLARD,47.66737,-122.37956,1954,5,0,285333,Hospital (General Medical & Surgical),302661.0,68090728.0,47602720.0,False,Compliant,71,12.561415702901638,False,False,False,False,True,57066.6,False,False,False,False,False,False,False,False,False,False,False,False,False
163,Nonresidential COS,Other,Fire Station 10/FAC/EOC,105 5th Ave S,Seattle,DOWNTOWN,47.60112,-122.32785,2006,4,0,61156,Other,42755.0,9363374.0,9550716.0,False,Compliant,19,11.02119960717217,False,False,True,False,False,15289.0,False,False,True,False,False,False,False,False,False,False,False,False,False
167,NonResidential,Other,Wing Luke Museum,719 South King Street,Seattle,DOWNTOWN,47.59809,-122.32283,1910,4,13820,59000,Museum,58000.0,2010454.625,2095175.25,False,Compliant,115,10.985309671896763,False,False,True,False,False,14750.0,False,False,True,False,False,False,False,False,False,False,False,False,False
168,NonResidential,Hotel,Hampton Inn Seattle Center,700 5th Ave N.,Seattle,MAGNOLIA / QUEEN ANNE,47.62614,-122.3467,1996,4,14200,148022,Hotel,113702.0,7946961.0,8016521.0,False,Compliant,29,11.905122946077489,False,False,False,True,False,37005.5,False,False,False,False,False,False,True,False,False,False,False,False,False
170,NonResidential,University,SCCC FINE ARTS BUILDING,801 E PINE ST,Seattle,EAST,47.61495,-122.32177,1915,3,0,63330,College/University,64820.0,3059758.0,3284214.5,False,Compliant,110,11.056130219690564,False,False,True,False,False,21110.0,False,False,False,True,False,False,False,False,False,False,False,False,False
172,Campus,University,SSCC MAIN CAMPUS,6000 16th Ave SW,Seattle,DELRIDGE,47.547,-122.35307,1970,2,0,441071,College/University,483000.0,38301744.0,41151732.0,False,Compliant,55,12.996963406408776,False,False,False,False,True,220535.5,False,True,False,False,False,False,False,False,False,False,False,False,False
173,NonResidential,Small- and Mid-Sized Office,Seattle Children's Hospital 70th/Sand Point Way Administrative Offices,6901Sand Point Way NE,Seattle,NORTHEAST,47.67828,-122.26456,2002,2,0,96300,Office,92300.0,16319835.0,16274449.0,False,Compliant,23,11.475233981948293,False,False,True,False,False,48150.0,False,False,False,False,False,False,False,False,True,False,False,False,False
174,Nonresidential COS,Other,CSC Vehicle Maintenance (E),805 S Charles St,Seattle,GREATER DUWAMISH,47.59545,-122.32146,1950,1,0,67356,"Repair Services (Vehicle, Shoe, Locksmith, etc)",68359.0,7475577.5,8086930.5,False,Compliant,75,11.117762111107313,False,False,True,False,False,67356.0,False,False,False,False,True,False,False,False,False,False,False,False,False
179,NonResidential,Small- and Mid-Sized Office,Seattle's Union Gospel Mission - Admin,3800 S Othello St,Seattle,GREATER DUWAMISH,47.53827,-122.28406,1958,1,0,54765,Office,25765.0,4253369.5,4503671.5,False,Compliant,67,10.910824842428626,False,False,True,False,False,54765.0,False,False,False,False,True,False,False,False,False,False,False,False,False
180,NonResidential,Other,Hope Place,3802 S Othello St,Seattle,GREATER DUWAMISH,47.53722,-122.284,2009,5,0,89821,Other - Lodging/Residential,46483.0,1950092.5,2220796.5,False,Compliant,16,11.405585213149562,False,False,True,False,False,17964.2,False,False,False,False,True,False,False,False,False,False,False,False,False
182,NonResidential,University,Otto Miller Hall,3469 3rd Ave. W,Seattle,MAGNOLIA / QUEEN ANNE,47.65147,-122.36122,1980,2,0,52611,College/University,52611.0,4116871.5,4390158.0,False,Compliant,45,10.87069950958867,False,False,True,False,False,26305.5,False,False,False,False,False,False,True,False,False,False,False,False,False
183,NonResidential,Residence Hall,Emerson Hall,500 W. Emerson,Seattle,MAGNOLIA / QUEEN ANNE,47.65068,-122.36331,2001,4,37500,102100,Residence Hall/Dormitory,135520.0,4448582.5,4800620.5,False,Compliant,24,11.533717798424087,False,False,False,True,False,25525.0,False,False,False,False,False,False,True,False,False,False,False,False,False
185,SPS-District K-12,K-12 School,Nathan Hale High,17050 30th Ave. N.E.,Seattle,NORTH,47.70763,-122.29453,2011,2,0,236758,K-12 School,238550.0,8355988.5,9287467.0,False,Compliant,14,12.374798025109309,False,False,False,False,True,118379.0,False,False,False,False,False,False,False,True,False,False,False,False,False
187,NonResidential,Other,Youth Services Center,1211 E Alder Street,Seattle,CENTRAL,47.60462,-122.31549,1971,6,0,250981,Other,137565.0,13071700.0,14196194.0,False,Compliant,54,12.433136502395,False,False,False,False,True,41830.166666666664,True,False,False,False,False,False,False,False,False,False,False,False,False
338,NonResidential,Other,Jack R. McDonald Building,1900 9th Ave.,Seattle,DOWNTOWN,47.61598,-122.33448,2004,11,68432,230638,Other,250000.0,65336980.0,66000296.0,False,Compliant,21,12.348608996541525,False,False,False,False,True,20967.090909090908,False,False,True,False,False,False,False,False,False,False,False,False,False
190,NonResidential,Small- and Mid-Sized Office,Emerald Services,7343 E Marginal Way S,Seattle,GREATER DUWAMISH,47.536,-122.31768,2007,3,0,64015,Office,30000.0,3242077.75,3375016.25,False,Compliant,18,11.066888331097017,False,False,True,False,False,21338.333333333332,False,False,False,False,True,False,False,False,False,False,False,False,False
194,NonResidential,Retail Store,Northgate Mall,401 Northgate Way,Seattle,NORTH,47.70759,-122.3255,1951,1,0,530039,Retail Store,505103.0,27717034.0,28763498.0,False,Compliant,74,13.180707754378572,False,False,False,False,True,530039.0,False,False,False,False,False,False,False,True,False,False,False,False,False
195,NonResidential,Other,Seattle-Northgate,10631 8th Ave NE,Seattle,NORTH,47.7066,-122.321,1964,3,0,54224,Other/Specialty Hospital,47012.0,7265178.0,7668810.0,False,Compliant,61,10.900897335695076,False,False,True,False,False,18074.666666666668,False,False,False,False,False,False,False,True,False,False,False,False,False
197,NonResidential,Retail Store,Nordstrom Northgate 002,401 NE Northgate Way,Seattle,NORTH,47.70619,-122.32586,1965,4,0,124342,Retail Store,122000.0,8765978.0,8729918.0,False,Compliant,60,11.7307991549249,False,False,False,True,False,31085.5,False,False,False,False,False,False,False,True,False,False,False,False,False
198,NonResidential,Hospital,Seattle Children's Hospital Main Campus,4800 Sand Point Way NE,Seattle,NORTHEAST,47.66231,-122.28146,1953,10,0,879000,Hospital (General Medical & Surgical),879000.0,253832464.0,257764208.0,False,Compliant,72,13.686541314323094,False,False,False,False,True,87900.0,False,False,False,False,False,False,False,False,True,False,False,False,False
200,NonResidential,Other,Verity Credit Union,11027 Meridian N #102,Seattle,NORTHWEST,47.70956,-122.3345,1996,3,0,55442,Financial Office,28636.0,3191228.25,3313397.0,False,Compliant,29,10.923110744953865,False,False,True,False,False,18480.666666666668,False,False,False,False,False,False,False,False,False,True,False,False,False
209,NonResidential,Self-Storage Facility,Madison Self Storage,1111 E. Madison,Seattle,EAST,47.61233,-122.3171,1910,5,0,84870,Self-Storage Facility,85521.0,1381590.125,1617801.25,False,Compliant,115,11.34888773562083,False,False,True,False,False,16974.0,False,False,False,True,False,False,False,False,False,False,False,False,False
211,Campus,University,NSCC MAIN CAMPUS,9600 COLLEGE WAY N,Seattle,NORTHWEST,47.69936,-122.33401,1970,2,111625,582447,College/University,667335.0,35891484.0,37410800.0,False,Compliant,55,13.27499519005089,False,False,False,False,True,291223.5,False,False,False,False,False,False,False,False,False,True,False,False,False
215,NonResidential,Warehouse,Rainier Bottling Plant,5628 Airport Way South,Seattle,GREATER DUWAMISH,47.55152,-122.31869,1904,4,0,114297,Non-Refrigerated Warehouse,114297.0,2100097.75,2415462.5,False,Compliant,121,11.646564351817041,False,False,False,True,False,28574.25,False,False,False,False,True,False,False,False,False,False,False,False,False
220,NonResidential,Warehouse,8109,4786 First Ave S,Seattle,GREATER DUWAMISH,47.55901,-122.33328,1937,1,0,234144,Non-Refrigerated Warehouse,234144.0,6744317.0,7874958.5,False,Compliant,88,12.363695860550678,False,False,False,False,True,234144.0,False,False,False,False,True,False,False,False,False,False,False,False,False
223,NonResidential,Retail Store,Westwood Village - Building A,2600 SW Barton St,Seattle,DELRIDGE,47.52254,-122.36627,1966,1,0,64984,Retail Store,65425.0,2944296.25,3016373.5,False,Compliant,59,11.081911753015689,False,False,True,False,False,64984.0,False,True,False,False,False,False,False,False,False,False,False,False,False
224,NonResidential,Retail Store,Westwood Village - Building B,2600 SW Barton St,Seattle,DELRIDGE,47.52254,-122.36627,1965,1,0,67745,Retail Store,67782.0,9230223.0,9589728.0,False,Compliant,60,11.123520696408578,False,False,True,False,False,67745.0,False,True,False,False,False,False,False,False,False,False,False,False,False
225,SPS-District K-12,K-12 School,Denny/Sealth Campus,2601 SW Kenyon / 2600 SW Thistle,Seattle,DELRIDGE,47.52915,-122.36511,2010,2,0,367884,K-12 School,367884.0,12265516.0,13279344.0,False,Compliant,15,12.815525668312768,False,False,False,False,True,183942.0,False,True,False,False,False,False,False,False,False,False,False,False,False
228,NonResidential,Other,Webster Building,3014 NW 67th St.,Seattle,BALLARD,47.67767,-122.39631,1973,3,0,56000,Other,56000.0,1851260.5,2088978.125,False,Compliant,52,10.933124826700707,False,False,True,False,False,18666.666666666668,False,False,False,False,False,False,False,False,False,False,False,False,False
230,NonResidential,Self-Storage Facility,U-Haul Moving and Storage of West Seattle,6343 35th Ave SW,Seattle,SOUTHWEST,47.54508,-122.37737,1969,2,0,52088,Self-Storage Facility,52088.0,1377519.5,1576122.875,False,Compliant,56,10.860709073012247,False,False,True,False,False,26044.0,False,False,False,False,False,False,False,False,False,False,False,False,True
232,NonResidential,Hotel,Silver Cloud Inn,1150 Fairview Ave N,Seattle,LAKE UNION,47.62972,-122.32906,1998,5,30000,93920,Hotel,123920.0,9373179.0,9676783.0,False,Compliant,27,11.450209282364696,False,False,True,False,False,18784.0,False,False,False,False,False,True,False,False,False,False,False,False,False
233,Nonresidential COS,Other,Armory Building,860 Terry Ave N,Seattle,LAKE UNION,47.62759,-122.33661,1900,1,0,50000,Museum,43000.0,7548807.0,7942537.5,False,Compliant,125,10.819798284210286,False,True,False,False,False,50000.0,False,False,False,False,False,True,False,False,False,False,False,False,False
234,Nonresidential COS,Warehouse,SCL Roy Street Warehouse,802 Roy St,Seattle,MAGNOLIA / QUEEN ANNE,47.62591,-122.34084,1926,2,0,50292,Non-Refrigerated Warehouse,42345.0,430473.6875,430473.6875,False,Compliant,99,10.825621181393542,False,False,True,False,False,25146.0,False,False,False,False,False,False,True,False,False,False,False,False,False
235,NonResidential,Hotel,311jk-Seattle Downtown/Lake Union CY,925 Westlake Ave North,Seattle,MAGNOLIA / QUEEN ANNE,47.62782,-122.34045,1998,7,54341,153315,Hotel,141591.0,11171988.0,11754087.0,False,Compliant,27,11.940256429929011,False,False,False,True,False,21902.14285714286,False,False,False,False,False,False,True,False,False,False,False,False,False
238,Nonresidential COS,Small- and Mid-Sized Office,North Service Center,1300 N 97th ST,Seattle,NORTHWEST,47.70044,-122.34136,1957,2,0,91130,Office,57968.0,9472358.0,10005492.0,False,Compliant,68,11.420053310764763,False,False,True,False,False,45565.0,False,False,False,False,False,False,False,False,False,True,False,False,False
241,NonResidential,Hotel,Hotel Nexus,2140 N. Northgate Way,Seattle,NORTHWEST,47.70916,-122.33216,1968,4,0,64893,Hotel,64893.0,6197825.0,6211749.5,False,Compliant,57,11.080510448495465,False,False,True,False,False,16223.25,False,False,False,False,False,False,False,False,False,True,False,False,False
244,NonResidential,Small- and Mid-Sized Office,Washington Park Building,76-80 S washington st,Seattle,DOWNTOWN,47.60105,-122.33518,1900,3,0,44558,Office,34416.0,1677002.25,1722053.0,False,Compliant,125,10.704569432697642,False,True,False,False,False,14852.666666666666,False,False,True,False,False,False,False,False,False,False,False,False,False
245,NonResidential,Other,CenturyLink,800 Occidental Ave. South,Seattle,GREATER DUWAMISH,47.59544,-122.33159,1999,6,327680,1258280,Other - Entertainment/Public Assembly,1585960.0,59757440.0,62160304.0,False,Compliant,26,14.045257061728316,False,False,False,False,True,209713.33333333334,False,False,False,False,True,False,False,False,False,False,False,False,False
247,Nonresidential COS,Distribution Center,SCL SSC Building A,3613 4th Ave S,Seattle,GREATER DUWAMISH,47.57199,-122.32811,1924,2,0,179161,Distribution Center,117476.0,9436408.0,10168523.0,False,Compliant,101,12.096045703465,False,False,False,True,False,89580.5,False,False,False,False,True,False,False,False,False,False,False,False,False
248,Nonresidential COS,Warehouse,SCL SSC Building B,3613 4th Ave S,Seattle,GREATER DUWAMISH,47.57199,-122.32811,1965,2,0,58640,Non-Refrigerated Warehouse,40831.0,3928695.25,4327563.5,False,Compliant,60,10.979189389621132,False,False,True,False,False,29320.0,False,False,False,False,True,False,False,False,False,False,False,False,False
249,NonResidential,Other,Safeco Field,1250 First Avenue South,Seattle,GREATER DUWAMISH,47.59085,-122.33354,1999,3,0,1172127,Other - Entertainment/Public Assembly,1172127.0,58761304.0,57406988.0,False,Compliant,26,13.974331458172633,False,False,False,False,True,390709.0,False,False,False,False,True,False,False,False,False,False,False,False,False
250,NonResidential,Hotel,Silver Cloud Hotel - Stadium,1046 1st Ave S,Seattle,GREATER DUWAMISH,47.59269,-122.33372,2005,9,14567,153882,Hotel,135006.0,12726789.0,12871628.0,False,Compliant,20,11.943947852387137,False,False,False,True,False,17098.0,False,False,False,False,True,False,False,False,False,False,False,False,False
257,NonResidential,Warehouse,Harbor Island: Warehouse E - DNRP-SWD,3235 16TH AVE SW,Seattle,GREATER DUWAMISH,47.57507,-122.35747,1916,4,0,79600,Non-Refrigerated Warehouse,79600.0,2411402.25,2411402.25,False,Compliant,109,11.284781934567633,False,False,True,False,False,19900.0,False,False,False,False,True,False,False,False,False,False,False,False,False
261,Campus,Large Office,South Park,1420 S Trenton,Seattle,GREATER DUWAMISH,47.52429,-122.31234,1980,2,31874,302494,Office,240984.0,53466684.0,54136068.0,False,Compliant,45,12.619820027390809,False,False,False,False,True,151247.0,False,False,False,False,True,False,False,False,False,False,False,False,False
263,NonResidential,Other,Building 1,316 NE Thornton Place,Seattle,NORTH,47.70281,-122.32532,2008,6,335109,84739,Parking,335109.0,9134963.0,9238992.0,False,Compliant,17,11.34734302418055,False,False,True,False,False,14123.166666666666,False,False,False,False,False,False,False,True,False,False,False,False,False
264,NonResidential,Mixed Use Property,TriBeCa,516 1st Ave W,Seattle,MAGNOLIA / QUEEN ANNE,47.6239,-122.35756,2002,4,0,110785,Multifamily Housing,58563.0,10557910.0,10864032.0,False,Compliant,23,11.615355691521394,False,False,False,True,False,27696.25,False,False,False,False,False,False,True,False,False,False,False,False,False
267,NonResidential,Hotel,Grand Hyatt Seattle,721 Pine St,Seattle,DOWNTOWN,47.61275,-122.3333,1999,0,0,934292,Hotel,495536.0,65047284.0,66502836.0,False,Compliant,26,13.7475453725128,False,False,False,False,True,,False,False,True,False,False,False,False,False,False,False,False,False,False
268,NonResidential,Hospital,Swedish Cherry Hill,500 17th Ave,Seattle,CENTRAL,47.60705,-122.30966,1990,5,0,597519,Hospital (General Medical & Surgical),601615.0,143423024.0,147299056.0,False,Compliant,35,13.300543035030948,False,False,False,False,True,119503.8,True,False,False,False,False,False,False,False,False,False,False,False,False
274,NonResidential,Warehouse,27020-Seattle / Stone Way North,3600 Stone Way North,Seattle,LAKE UNION,47.65097,-122.34227,1991,3,8161,67236,Non-Refrigerated Warehouse,67236.0,549181.375,571637.5,False,Compliant,34,11.115978970227394,False,False,True,False,False,22412.0,False,False,False,False,False,True,False,False,False,False,False,False,False
276,NonResidential,Hospital,Harborview Medical Center,325 9th Ave.,Seattle,EAST,47.60399,-122.32377,2000,8,0,1158691,Hospital (General Medical & Surgical),1350182.0,293090784.0,296671744.0,False,Compliant,25,13.96280234067203,False,False,False,False,True,144836.375,False,False,False,True,False,False,False,False,False,False,False,False,False
278,NonResidential,Senior Care Community,ID Village Square 1,802 S. Dearborn St.,Seattle,DOWNTOWN,47.59626,-122.3218,1999,5,12611,90185,Senior Care Community,55259.0,10105379.0,10281401.0,False,Compliant,26,11.40962948336128,False,False,True,False,False,18037.0,False,False,True,False,False,False,False,False,False,False,False,False,False
281,NonResidential,K-12 School,University HTS Grade School,5031 University Way NE,Seattle,NORTHEAST,47.66568,-122.31368,1928,2,0,55653,K-12 School,55500.0,1377627.0,1597907.25,False,Compliant,97,10.926909231928333,False,False,True,False,False,27826.5,False,False,False,False,False,False,False,False,True,False,False,False,False
282,NonResidential,Hotel,Hotel Deca,4507 Brooklyn Ave NE,Seattle,NORTHEAST,47.66151,-122.31457,1931,16,0,106860,Hotel,106860.0,11935719.0,12616417.0,False,Compliant,94,11.579284203506532,False,False,False,True,False,6678.75,False,False,False,False,False,False,False,False,True,False,False,False,False
283,NonResidential,Small- and Mid-Sized Office,Lake City Center,12360 Lake City Way NE,Seattle,NORTH,47.71895,-122.29475,1972,5,0,50759,Office,47079.0,3147042.0,3321734.0,False,Compliant,53,10.834863921828324,False,False,True,False,False,10151.8,False,False,False,False,False,False,False,True,False,False,False,False,False
284,NonResidential,Worship Facility,University Congregational United Church of Christ,4505 16TH AVE NE,Seattle,NORTHEAST,47.66182,-122.31113,1952,2,0,56772,Worship Facility,56772.0,2439484.75,2762805.5,False,Compliant,73,10.946816139580935,False,False,True,False,False,28386.0,False,False,False,False,False,False,False,False,True,False,False,False,False
285,NonResidential,Worship Facility,University Presbyterian Church,4540 15th Avenue NE,Seattle,NORTHEAST,47.6626,-122.31164,1952,3,0,103000,Worship Facility,103000.0,4854429.5,5391782.0,False,Compliant,73,11.542493975902508,False,False,False,True,False,34333.333333333336,False,False,False,False,False,False,False,False,True,False,False,False,False
293,NonResidential,Other,ACT Theatre,700 Union St,Seattle,DOWNTOWN,47.61103,-122.33238,1914,7,0,128766,Other - Entertainment/Public Assembly,109754.0,6057410.0,6057410.0,False,Compliant,111,11.765759848644574,False,False,False,True,False,18395.14285714286,False,False,True,False,False,False,False,False,False,False,False,False,False
294,NonResidential,Residence Hall,Women's Residence at Seneca,1118 5th Avenue,Seattle,DOWNTOWN,47.6079,-122.33266,1913,9,0,107572,Residence Hall/Dormitory,63934.0,5572503.0,5879083.0,False,Compliant,112,11.58592496585375,False,False,False,True,False,11952.444444444445,False,False,True,False,False,False,False,False,False,False,False,False,False
295,NonResidential,Other,1122 3rd Ave,1122 3rd Ave,Seattle,DOWNTOWN,47.60699,-122.33481,1955,15,0,230880,Other,203000.0,62197176.0,61674856.0,False,Compliant,70,12.34965770525265,False,False,False,False,True,15392.0,False,False,True,False,False,False,False,False,False,False,False,False,False
302,NonResidential,Other,Seattle ReadCntr (50/50),Readiness Center - Pier 91,Seattle,MAGNOLIA / QUEEN ANNE,47.63965,-122.3783,1973,1,0,76086,Other,77810.0,3267564.0,3576720.0,False,Compliant,52,11.239632701398955,False,False,True,False,False,76086.0,False,False,False,False,False,False,True,False,False,False,False,False,False
313,NonResidential,Medical Office,BMR-201 Elliott Avenue LLC,201 Elliott Avenue West,Seattle,MAGNOLIA / QUEEN ANNE,47.61972,-122.36033,1927,5,39000,151000,Medical Office,146741.0,28731502.0,28731502.0,False,Compliant,98,11.92504173829169,False,False,False,True,False,30200.0,False,False,False,False,False,False,True,False,False,False,False,False,False
314,NonResidential,Hotel,Edgewater Seattle,2411 Alaskan Way,Seattle,DOWNTOWN,47.6124,-122.35075,1961,4,0,122309,Hotel,122309.0,25453690.0,26122018.0,False,Compliant,64,11.714314084481408,False,False,False,True,False,30577.25,False,False,True,False,False,False,False,False,False,False,False,False,False
315,Campus,Other,P66 Bell Harbor International Conference Center & Cruise Terminal.,2225 Alaskan Way,Seattle,DOWNTOWN,47.61137,-122.34947,1995,3,0,215476,Other,217088.0,24017770.0,24606366.0,False,Compliant,30,12.28060945429176,False,False,False,False,True,71825.33333333333,False,False,True,False,False,False,False,False,False,False,False,False,False
316,NonResidential,Hotel,337v2-Seattle Waterfront Marriott,2100 Alaskan Way,Seattle,DOWNTOWN,47.61069,-122.34653,2003,8,38800,215473,Hotel,277000.0,26659244.0,26831896.0,False,Compliant,22,12.280595531595212,False,False,False,False,True,26934.125,False,False,True,False,False,False,False,False,False,False,False,False,False
317,Nonresidential COS,Other,Seattle Aquarium,1421 Alaskan Way,Seattle,DOWNTOWN,47.60729,-122.34211,1980,2,0,69400,Other - Entertainment/Public Assembly,69400.0,14833476.0,15230290.0,False,Compliant,45,11.147656555612986,False,False,True,False,False,34700.0,False,False,True,False,False,False,False,False,False,False,False,False,False
318,NonResidential,Mixed Use Property,Pier 54,1001 Alaskan Way,Seattle,DOWNTOWN,47.6041,-122.33958,1900,1,0,62900,Restaurant,32494.0,10394330.0,10883874.0,False,Compliant,125,11.049317340813348,False,False,True,False,False,62900.0,False,False,True,False,False,False,False,False,False,False,False,False,False
319,NonResidential,Small- and Mid-Sized Office,Daily Journal Building,83 Columbia St.,Seattle,DOWNTOWN,47.60271,-122.33557,1914,4,0,56500,Office,33000.0,1380293.625,1500938.5,False,Compliant,111,10.942013616092948,False,False,True,False,False,14125.0,False,False,True,False,False,False,False,False,False,False,False,False,False
320,NonResidential,Warehouse,(ID320) BMW SEATTLE - SERVICE CENTER,900 MAYNARD AVE S,Seattle,GREATER DUWAMISH,47.59486,-122.32455,2008,4,0,203504,Non-Refrigerated Warehouse,159372.0,3785282.5,3944732.0,False,Compliant,17,12.223445853587519,False,False,False,False,True,50876.0,False,False,False,False,True,False,False,False,False,False,False,False,False
322,NonResidential,Large Office,Cox Media Group Seattle KIRO TV (322),2801 3rd Ave,Seattle,DOWNTOWN,47.61757,-122.35122,1968,3,26731,74003,Office,100734.0,9788717.0,9892566.0,False,Compliant,57,11.211874424779493,False,False,True,False,False,24667.666666666668,False,False,True,False,False,False,False,False,False,False,False,False,False
323,NonResidential,Small- and Mid-Sized Office,200 Cedar Street Building,200 Cedar Street,Seattle,DOWNTOWN,47.61703,-122.35012,1981,4,18504,59158,Office,62108.0,5007401.0,5168686.5,False,Compliant,44,10.987984013368823,False,False,True,False,False,14789.5,False,False,True,False,False,False,False,False,False,False,False,False,False
324,NonResidential,Large Office,Fourth and Battery,2401 Fourth Avenue,Seattle,DOWNTOWN,47.61619,-122.34599,1978,12,21790,212210,Office,173786.0,18661606.0,18811322.0,False,Compliant,47,12.265336341707266,False,False,False,False,True,17684.166666666668,False,False,True,False,False,False,False,False,False,False,False,False,False
326,NonResidential,Large Office,Westlake Tower,1601 5th Avenue,Seattle,DOWNTOWN,47.61217,-122.33694,1989,25,0,369996,Office,383942.0,24755086.0,24755086.0,False,Compliant,36,12.821250176479428,False,False,False,False,True,14799.84,False,False,True,False,False,False,False,False,False,False,False,False,False
327,NonResidential,Retail Store,Nordstrom 001,500 Pine Street,Seattle,DOWNTOWN,47.61229,-122.33629,1925,10,0,693450,Retail Store,361107.0,40062888.0,40037736.0,False,Compliant,100,13.449435860148478,False,False,False,False,True,69345.0,False,False,True,False,False,False,False,False,False,False,False,False,False
328,NonResidential,Large Office,1600 Seventh,1600 7th Ave,Seattle,DOWNTOWN,47.61316,-122.3343,1976,33,0,791396,Office,622034.0,40847752.0,42227404.0,False,Compliant,49,13.581555017175708,False,False,False,False,True,23981.696969696968,False,False,True,False,False,False,False,False,False,False,False,False,False
329,NonResidential,Large Office,1700 Seventh Ave,1700 Seventh,Seattle,DOWNTOWN,47.61399,-122.33523,2000,23,205076,542671,Office,542461.0,30985420.0,31693704.0,False,Compliant,25,13.204260364838046,False,False,False,False,True,23594.391304347828,False,False,True,False,False,False,False,False,False,False,False,False,False
330,NonResidential,Small- and Mid-Sized Office,Lloyd building,603 Stewart Street,Seattle,DOWNTOWN,47.61356,-122.33665,1926,10,7757,55652,Office,45260.0,3444270.0,3826622.5,False,Compliant,99,10.926891263606484,False,False,True,False,False,5565.2,False,False,True,False,False,False,False,False,False,False,False,False,False
331,NonResidential,Large Office,The Tower Building,1809 7th Ave,Seattle,DOWNTOWN,47.61375,-122.33566,1930,17,30000,174790,Office,142034.0,7739699.0,8081443.0,False,Compliant,95,12.071346253463862,False,False,False,True,False,10281.764705882353,False,False,True,False,False,False,False,False,False,False,False,False,False
332,NonResidential,Small- and Mid-Sized Office,Times Square Building,414 Olive Street,Seattle,DOWNTOWN,47.61256,-122.33808,1916,5,0,73399,Office,51557.0,3757006.0,3992167.75,False,Compliant,109,11.203679214602607,False,False,True,False,False,14679.8,False,False,True,False,False,False,False,False,False,False,False,False,False
333,NonResidential,Large Office,Plaza 600,600 Stewart Street,Seattle,DOWNTOWN,47.61391,-122.33725,1969,20,32334,233517,Office,226454.0,14633233.0,15742790.0,False,Compliant,56,12.36101444091441,False,False,False,False,True,11675.85,False,False,True,False,False,False,False,False,False,False,False,False,False
334,NonResidential,Large Office,West 8th,2001 - 8th Avenue,Seattle,DOWNTOWN,47.61578,-122.33726,2009,25,228668,529375,Office,582725.0,27018020.0,27018020.0,False,Compliant,16,13.179454233406743,False,False,False,False,True,21175.0,False,False,True,False,False,False,False,False,False,False,False,False,False
335,NonResidential,Large Office,Denny Building,2200 Sixth Avenue,Seattle,DOWNTOWN,47.61641,-122.34112,1968,12,0,206000,Office,161000.0,8580279.0,9075988.0,False,Compliant,57,12.235636302128867,False,False,False,False,True,17166.666666666668,False,False,True,False,False,False,False,False,False,False,False,False,False
336,NonResidential,Large Office,1918 Eighth Avenue,1918 Eighth Avenue,Seattle,DOWNTOWN,47.61555,-122.33582,2009,36,154972,669915,Office,743562.0,39523852.0,39360016.0,False,Compliant,16,13.414907610372952,False,False,False,False,True,18608.75,False,False,True,False,False,False,False,False,False,False,False,False,False
337,NonResidential,Large Office,1800 Ninth,1800 9th Avenue,Seattle,DOWNTOWN,47.61516,-122.33303,1990,16,141600,339240,Office,311736.0,17867002.0,18468776.0,False,Compliant,35,12.734466048236886,False,False,False,False,True,21202.5,False,False,True,False,False,False,False,False,False,False,False,False,False
339,NonResidential,Small- and Mid-Sized Office,Broderick Building,615 2nd Avenue,Seattle,DOWNTOWN,47.60266,-122.33332,1900,7,0,89550,Office,64712.0,3903259.75,4135330.5,False,Compliant,125,11.402563574372348,False,False,True,False,False,12792.857142857143,False,False,True,False,False,False,False,False,False,False,False,False,False
340,NonResidential,Small- and Mid-Sized Office,The Pioneer Building,600 First Ave,Seattle,DOWNTOWN,47.60219,-122.33347,1900,6,0,89355,Office,82355.0,4178233.5,4188308.75,False,Compliant,125,11.400383669983814,False,False,True,False,False,14892.5,False,False,True,False,False,False,False,False,False,False,False,False,False
341,NonResidential,Large Office,Dexter Horton Building,710 2nd Avenue,Seattle,DOWNTOWN,47.6036,-122.33288,1922,15,0,388934,Office,388934.0,18576900.0,18982748.0,False,Compliant,103,12.871167513522957,False,False,False,False,True,25928.933333333334,False,False,True,False,False,False,False,False,False,False,False,False,False
342,NonResidential,Large Office,Seattle Exchange Building,821 2nd ave,Seattle,DOWNTOWN,47.60403,-122.33497,1929,22,0,384302,Office,348969.0,10062436.0,10471812.0,False,Compliant,96,12.859186582923714,False,False,False,False,True,17468.272727272728,False,False,True,False,False,False,False,False,False,False,False,False,False
343,NonResidential,Large Office,Norton Building,801 2nd Ave Suite 1300,Seattle,DOWNTOWN,47.6037,-122.33447,1958,17,84600,293925,Office,236827.0,24906132.0,0.0,False,Compliant,67,12.591083313958613,False,False,False,False,True,17289.70588235294,False,False,True,False,False,False,False,False,False,False,False,False,False
345,NonResidential,Large Office,999 Third Avenue,"999 3rd Avenue, Suite 1550",Seattle,DOWNTOWN,47.60505,-122.33427,1983,47,0,1323055,Office,1011135.0,44683660.0,44683660.0,False,Compliant,42,14.095454770243615,False,False,False,False,True,28150.106382978724,False,False,True,False,False,False,False,False,False,False,False,False,False
346,NonResidential,Large Office,1000 Second Avenue,1000 Second Avenue,Seattle,DOWNTOWN,47.60567,-122.33511,1986,41,129432,460489,Office,470416.0,24603420.0,24603420.0,False,Compliant,39,13.04004641891511,False,False,False,False,True,11231.439024390244,False,False,True,False,False,False,False,False,False,False,False,False,False
347,NonResidential,Small- and Mid-Sized Office,1015 Second Avenue,1015 Second Avenue,Seattle,DOWNTOWN,47.60542,-122.33588,1950,6,1392,89699,Office,89699.0,1835804.875,1916413.75,False,Compliant,75,11.404226048046887,False,False,True,False,False,14949.833333333334,False,False,True,False,False,False,False,False,False,False,False,False,False
348,NonResidential,Large Office,1101 Second Avenue (HOB),1101 2nd Avenue,Seattle,DOWNTOWN,47.60581,-122.33664,1968,8,62993,94948,Office,84838.0,3743228.5,3743228.5,False,Compliant,57,11.461095184326098,False,False,True,False,False,11868.5,False,False,True,False,False,False,False,False,False,False,False,False,False
349,NonResidential,Large Office,2nd and Seneca,1191 2nd Avenue,Seattle,DOWNTOWN,47.60614,-122.33674,1991,29,197231,438072,Office,522667.0,18221224.0,18754466.0,False,Compliant,34,12.990140842137905,False,False,False,False,True,15105.931034482759,False,False,True,False,False,False,False,False,False,False,False,False,False
351,NonResidential,Large Office,1111 Third Avenue,1111 3rd Ave Suite 310,Seattle,DOWNTOWN,47.60655,-122.33533,1980,34,162604,614158,Office,606050.0,32552428.0,32577050.0,False,Compliant,45,13.328009131260256,False,False,False,False,True,18063.470588235294,False,False,True,False,False,False,False,False,False,False,False,False,False
352,NonResidential,Large Office,Abraham Lincoln Building (Wallysons Inc),1110 Third Avenue,Seattle,DOWNTOWN,47.60671,-122.33456,1972,14,23775,162993,Office,182540.0,9641043.0,9843217.0,False,Compliant,53,12.00146866929545,False,False,False,True,False,11642.357142857143,False,False,True,False,False,False,False,False,False,False,False,False,False
353,NonResidential,Large Office,Safeco Plaza,1001 Fourth Avenue,Seattle,DOWNTOWN,47.60615,-122.33388,1969,49,368980,754455,Office,808980.0,45163308.0,47518124.0,False,Compliant,56,13.533752238723482,False,False,False,False,True,15397.040816326531,False,False,True,False,False,False,False,False,False,False,False,False,False
354,NonResidential,Large Office,Fourth & Madison,925 Fourth Avenue,Seattle,DOWNTOWN,47.60549,-122.33319,2002,37,164420,888049,Office,765351.0,41213584.0,42071712.0,False,Compliant,23,13.696783326695472,False,False,False,False,True,24001.324324324323,False,False,True,False,False,False,False,False,False,False,False,False,False
355,NonResidential,Large Office,901 Fifth Avenue,901 Fifth Avenue,Seattle,DOWNTOWN,47.60616,-122.33165,1973,42,171500,446184,Office,581558.0,69519808.0,71568952.0,False,Compliant,52,13.008488943203485,False,False,False,False,True,10623.42857142857,False,False,True,False,False,False,False,False,False,False,False,False,False
356,NonResidential,Large Office,The Central Building,810 Third Avenue,Seattle,DOWNTOWN,47.60471,-122.33261,1907,8,0,201480,Office,161762.0,8921778.0,9510490.0,False,Compliant,118,12.213450363119058,False,False,False,False,True,25185.0,False,False,True,False,False,False,False,False,False,False,False,False,False
357,Nonresidential COS,Large Office,Seattle Municipal Tower (2030),700 Fifth Avenue,Seattle,DOWNTOWN,47.60501,-122.32988,1990,63,159600,1195387,Office,1191115.0,61576184.0,61576184.0,False,Compliant,35,13.993981376841061,False,False,False,False,True,18974.396825396827,False,False,True,False,False,False,False,False,False,False,False,False,False
358,Nonresidential COS,Large Office,Justice Center,610 5th Ave,Seattle,DOWNTOWN,47.60421,-122.32919,2001,14,0,310490,Office,269284.0,21169502.0,21960822.0,False,Compliant,24,12.645910194428335,False,False,False,False,True,22177.85714285714,False,False,True,False,False,False,False,False,False,False,False,False,False
359,Nonresidential COS,Large Office,City Hall,600 4th Ave,Seattle,DOWNTOWN,47.60377,-122.32971,2003,8,30660,168870,Office,160418.0,13214416.0,13972700.0,False,Compliant,22,12.036890388823577,False,False,False,True,False,21108.75,False,False,True,False,False,False,False,False,False,False,False,False,False
360,NonResidential,Large Office,Chinook Building,401 Fifth Ave.,Seattle,DOWNTOWN,47.60249,-122.32854,2006,13,52703,319539,Office,319539.0,13843866.0,13862720.0,False,Compliant,19,12.674637740581563,False,False,False,False,True,24579.923076923078,False,False,True,False,False,False,False,False,False,False,False,False,False
361,NonResidential,Large Office,Yesler Building,400 YESLER WAY,Seattle,DOWNTOWN,47.60193,-122.32812,1909,7,8296,106099,Office,96582.0,2746560.75,2970604.25,False,Compliant,116,11.572137324602075,False,False,False,True,False,15157.0,False,False,True,False,False,False,False,False,False,False,False,False,False
363,NonResidential,Retail Store,University Book Store,4326 University Way NE,Seattle,NORTHEAST,47.66024,-122.31278,1978,2,0,89200,Retail Store,89200.0,6461937.0,6707359.5,False,Compliant,47,11.398647529267592,False,False,True,False,False,44600.0,False,False,False,False,False,False,False,False,True,False,False,False,False
364,NonResidential,Large Office,UW Tower Bldg Complex,4333 Brooklyn Ave,Seattle,NORTHEAST,47.66072,-122.31466,1971,23,0,474546,Office,474546.0,28450436.0,29997380.0,False,Compliant,54,13.070115943760129,False,False,False,False,True,20632.434782608696,False,False,False,False,False,False,False,False,True,False,False,False,False
366,NonResidential,Small- and Mid-Sized Office,University District Office Buiding,1107 NE 45th St,Seattle,NORTHEAST,47.661,-122.31626,1961,5,0,99005,Office,79555.0,4728488.5,5008123.5,False,Compliant,64,11.50293573334086,False,False,True,False,False,19801.0,False,False,False,False,False,False,False,False,True,False,False,False,False
367,NonResidential,Large Office,4311 Roosevelt,4311 11th Avenue NE,Seattle,NORTHEAST,47.66065,-122.31689,2002,6,44248,90803,Office,95943.0,4426136.0,4426136.0,False,Compliant,23,11.416458616482522,False,False,True,False,False,15133.833333333334,False,False,False,False,False,False,False,False,True,False,False,False,False
368,NonResidential,Large Office,4300 Roosevelt,4300 Roosevelt Way NE,Seattle,NORTHEAST,47.65999,-122.31741,2002,5,82720,137929,Office,145754.0,7046345.5,7046345.5,False,Compliant,23,11.834501589069566,False,False,False,True,False,27585.8,False,False,False,False,False,False,False,False,True,False,False,False,False
369,NonResidential,Self-Storage Facility,Seattle Vault Self Storage,1800 Terry Ave.,Seattle,DOWNTOWN,47.61591,-122.33238,1964,5,0,93660,Self-Storage Facility,93660.0,873221.875,940359.1875,False,Compliant,61,11.447437159597042,False,False,True,False,False,18732.0,False,False,True,False,False,False,False,False,False,False,False,False,False
370,NonResidential,Large Office,Metropolitan Park West,1100 Olive Way,Seattle,DOWNTOWN,47.61597,-122.33086,1980,18,64660,349055,Office,348270.0,24224888.0,24224888.0,False,Compliant,45,12.762987646765206,False,False,False,False,True,19391.944444444445,False,False,True,False,False,False,False,False,False,False,False,False,False
371,NonResidential,Mixed Use Property,METROPOLITAN PARK NORTH (ID371),1220 HOWELL ST,Seattle,DOWNTOWN,47.6177,-122.3306,2000,11,195621,185760,Parking,182820.0,9765777.0,9944328.0,False,Compliant,25,12.132216180207495,False,False,False,True,False,16887.272727272728,False,False,True,False,False,False,False,False,False,False,False,False,False
372,NonResidential,Large Office,Metropolitan Park East,1730 Minor Avenue,Seattle,DOWNTOWN,47.61695,-122.32965,1988,20,118744,378769,Office,367623.0,26823218.0,0.0,False,Compliant,37,12.844684439692093,False,False,False,False,True,18938.45,False,False,True,False,False,False,False,False,False,False,False,False,False
373,NonResidential,Large Office,Fourth and Blanchard,2101 Fourth Avenue,Seattle,DOWNTOWN,47.61431,-122.34244,1979,24,116721,427155,Office,424044.0,25307744.0,26144226.0,False,Compliant,46,12.964904565068961,False,False,False,False,True,17798.125,False,False,True,False,False,False,False,False,False,False,False,False,False
374,NonResidential,Mixed Use Property,ECONET (ID#374),3005 1ST AVE,Seattle,DOWNTOWN,47.6177,-122.3545,1980,4,38700,70647,Laboratory,42389.0,8218155.5,8381544.5,False,Compliant,45,11.165465079148639,False,False,True,False,False,17661.75,False,False,True,False,False,False,False,False,False,False,False,False,False
375,NonResidential,Large Office,Third and Broad,2901 Third Avenue,Seattle,DOWNTOWN,47.6182,-122.352,1982,6,124216,272410,Office,274002.0,20361158.0,20179120.0,False,Compliant,43,12.515067234233655,False,False,False,False,True,45401.666666666664,False,False,True,False,False,False,False,False,False,False,False,False,False
376,NonResidential,Large Office,5th and Bell,2301 5th Ave,Seattle,DOWNTOWN,47.61598,-122.34369,2002,6,83591,203880,Office,191814.0,14913424.0,14913424.0,False,Compliant,23,12.225291769287937,False,False,False,False,True,33980.0,False,False,True,False,False,False,False,False,False,False,False,False,False
377,NonResidential,Large Office,Fifth and Wall LLC,521 Wall Street,Seattle,DOWNTOWN,47.61734,-122.34434,1947,3,48512,144118,Office,146157.0,5357833.0,5569686.0,False,Compliant,78,11.878394626175732,False,False,False,True,False,48039.333333333336,False,False,True,False,False,False,False,False,False,False,False,False,False
379,NonResidential,Large Office,3101 Western Avenue,3101 Western Avenue,Seattle,DOWNTOWN,47.6176,-122.35686,1984,8,61986,191117,Office,158681.0,29949248.0,29949248.0,False,Compliant,41,12.160646317315384,False,False,False,True,False,23889.625,False,False,True,False,False,False,False,False,False,False,False,False,False
381,NonResidential,Supermarket / Grocery Store,70500872 -- Holman Road,9999 Holman Road NW,Seattle,NORTHWEST,47.7019,-122.36374,1956,1,0,60880,Supermarket/Grocery Store,61666.0,14293972.0,14736775.0,False,Compliant,69,11.016676418156251,False,False,True,False,False,60880.0,False,False,False,False,False,False,False,False,False,True,False,False,False
382,NonResidential,Small- and Mid-Sized Office,Collins Building,524 2nd Ave,Seattle,DOWNTOWN,47.60227,-122.33202,1900,5,0,50176,Office,50328.0,2933288.75,2933288.75,False,Compliant,125,10.823312033358421,False,False,True,False,False,10035.2,False,False,True,False,False,False,False,False,False,False,False,False,False
383,NonResidential,Large Office,Smith Tower,506 Second Avenue,Seattle,DOWNTOWN,47.60198,-122.33174,1912,42,0,304346,Office,245028.0,23262244.0,24880988.0,False,Compliant,113,12.62592377680104,False,False,False,False,True,7246.333333333333,False,False,True,False,False,False,False,False,False,False,False,False,False
384,NonResidential,Warehouse,Dawn Food Products,6901 fox ave south,Seattle,GREATER DUWAMISH,47.54066,-122.33023,1977,1,0,128800,Non-Refrigerated Warehouse,119200.0,1809101.5,2098949.75,False,Compliant,48,11.766023856597407,False,False,False,True,False,128800.0,False,False,False,False,True,False,False,False,False,False,False,False,False
385,NonResidential,Large Office,Skinner Building,1326 5th Avenue,Seattle,DOWNTOWN,47.60932,-122.33388,1927,8,0,321945,Office,166919.0,13656587.0,14072349.0,False,Compliant,98,12.682139108599662,False,False,False,False,True,40243.125,False,False,True,False,False,False,False,False,False,False,False,False,False
386,NonResidential,Large Office,IBM-COS,1200 5th avenue,Seattle,DOWNTOWN,47.60842,-122.33305,1964,22,0,336330,Office,256299.0,18967014.0,19730534.0,False,Compliant,61,12.725851073081628,False,False,False,False,True,15287.727272727272,False,False,True,False,False,False,False,False,False,False,False,False,False
387,NonResidential,Large Office,Puget Sound Plaza,1325 4th Avenue,Seattle,DOWNTOWN,47.60869,-122.33588,1960,21,0,298426,Office,286538.0,27076922.0,28559888.0,False,Compliant,65,12.606280625792168,False,False,False,False,True,14210.761904761905,False,False,True,False,False,False,False,False,False,False,False,False,False
388,NonResidential,Large Office,Rainier Tower,1301 5th Ave,Seattle,DOWNTOWN,47.60896,-122.33481,1976,42,0,635824,Office,718473.0,48479988.0,48479988.0,False,Compliant,49,13.362678647226858,False,False,False,False,True,15138.666666666666,False,False,True,False,False,False,False,False,False,False,False,False,False
389,NonResidential,Hotel,Fairmont Olympic Seattle,411 University Street,Seattle,DOWNTOWN,47.60804,-122.33391,1923,12,0,542305,Hotel,542305.0,56485204.0,57051236.0,False,Compliant,102,13.20358569675467,False,False,False,False,True,45192.083333333336,False,False,True,False,False,False,False,False,False,False,False,False,False
390,NonResidential,Retail Store,RAINIER ELECTRONICS LLC,2700 RAINIER AVE. S.,Seattle,SOUTHEAST,47.57936,-122.29744,1980,2,0,291940,Retail Store,191940.0,11688601.0,12080064.0,False,Compliant,45,12.584307006040078,False,False,False,False,True,145970.0,False,False,False,False,False,False,False,False,False,False,False,True,False
391,NonResidential,Mixed Use Property,Thaw Building,8300 Military Rd South,Seattle,GREATER DUWAMISH,47.52871,-122.29443,1970,1,0,88400,Non-Refrigerated Warehouse,33450.0,4383100.5,4811200.0,False,Compliant,55,11.389638560778947,False,False,True,False,False,88400.0,False,False,False,False,True,False,False,False,False,False,False,False,False
392,NonResidential,Warehouse,Linden Bldg,910 N 137th St,Seattle,NORTHWEST,47.72912,-122.34677,1960,1,0,52311,Non-Refrigerated Warehouse,51116.0,930611.875,1109137.125,False,Compliant,65,10.864981069241113,False,False,True,False,False,52311.0,False,False,False,False,False,False,False,False,False,True,False,False,False
393,NonResidential,Other,500 Yale,500 Yale Ave N,Seattle,LAKE UNION,47.62323,-122.33028,2009,5,69710,71421,Parking,74831.0,3085814.0,3085814.0,False,Compliant,16,11.176361224116755,False,False,True,False,False,14284.2,False,False,False,False,False,True,False,False,False,False,False,False,False
394,NonResidential,Large Office,501 Eastlake Ave. (ID394) Republican Building,501 EASTLAKE AVE E,Seattle,LAKE UNION,47.62333,-122.3296,2001,5,70067,106465,Office,103494.0,5803409.0,5803409.0,False,Compliant,24,11.57558096433457,False,False,False,True,False,21293.0,False,False,False,False,False,True,False,False,False,False,False,False,False
395,NonResidential,Warehouse,Ferguson Terminal,4205 9th Ave NW,Seattle,BALLARD,47.65825,-122.3683,1973,1,0,52500,Non-Refrigerated Warehouse,49395.0,3989399.0,4243867.0,False,Compliant,52,10.868587496017359,False,False,True,False,False,52500.0,False,False,False,False,False,False,False,False,False,False,False,False,False
396,NonResidential,Warehouse,SBC396,5301 Shilshole Ave NW,Seattle,BALLARD,47.66587,-122.38476,1959,2,0,57300,Non-Refrigerated Warehouse,29001.0,4560492.0,5095134.5,False,Compliant,66,10.956073354557526,False,False,True,False,False,28650.0,False,False,False,False,False,False,False,False,False,False,False,False,False
398,NonResidential,Large Office,2601 Elliott Avenue,2601 Elliott Avenue,Seattle,DOWNTOWN,47.61429,-122.35263,1916,6,0,350310,Office,305233.0,18102026.0,18102026.0,False,Compliant,109,12.766576610348281,False,False,False,False,True,58385.0,False,False,True,False,False,False,False,False,False,False,False,False,False
399,NonResidential,Large Office,1201 Third Avenue,1201 3rd ave,Seattle,DOWNTOWN,47.60723,-122.33611,1988,55,285000,1115000,Office,994116.0,53079164.0,55140300.0,False,Compliant,37,13.924365859736941,False,False,False,False,True,20272.727272727272,False,False,True,False,False,False,False,False,False,False,False,False,False
401,NonResidential,Hotel,WAC aggregate,1325 6th Ave,Seattle,DOWNTOWN,47.60968,-122.33379,1930,21,0,305548,Hotel,310000.0,33729336.0,34527356.0,False,Compliant,95,12.629865437530928,False,False,False,False,True,14549.904761904761,False,False,True,False,False,False,False,False,False,False,False,False,False
402,NonResidential,Large Office,US Bank Centre,1420 5th Avenue,Seattle,DOWNTOWN,47.61054,-122.33466,1989,46,512608,1023998,Office,1002403.0,56606136.0,58506844.0,False,Compliant,36,13.839226108018613,False,False,False,False,True,22260.82608695652,False,False,True,False,False,False,False,False,False,False,False,False,False
403,NonResidential,Large Office,Logan Building,500 Union St,Seattle,DOWNTOWN,47.61003,-122.33452,1958,10,0,135918,Office,144570.0,6423556.5,6771618.5,False,Compliant,67,11.819814399049767,False,False,False,True,False,13591.8,False,False,True,False,False,False,False,False,False,False,False,False,False
404,NonResidential,Retail Store,O'Shea Building,501 Pine Street,Seattle,DOWNTOWN,47.61159,-122.33601,1914,4,0,79957,Retail Store,35694.0,5252131.0,5171529.0,False,Compliant,111,11.289256775795264,False,False,True,False,False,19989.25,False,False,True,False,False,False,False,False,False,False,False,False,False
406,NonResidential,Large Office,520 Pike Tower,520 Pike Street,Seattle,DOWNTOWN,47.61125,-122.33494,1983,29,0,500000,Office,411301.0,18848780.0,19249572.0,False,Compliant,42,13.122365377402328,False,False,False,False,True,17241.379310344826,False,False,True,False,False,False,False,False,False,False,False,False,False
408,NonResidential,Large Office,Fourth and Pike Building,1424 4th Ave,Seattle,DOWNTOWN,47.61005,-122.3361,1926,10,0,132326,Office,92006.0,6029020.0,6146691.5,False,Compliant,99,11.793031410913876,False,False,False,True,False,13232.6,False,False,True,False,False,False,False,False,False,False,False,False,False
409,NonResidential,Large Office,Washington Federal,425 Pike Street,Seattle,DOWNTOWN,47.61033,-122.3357,1984,6,13200,96630,Office,83485.0,7335905.5,7335905.5,False,Compliant,41,11.478654879692781,False,False,True,False,False,16105.0,False,False,True,False,False,False,False,False,False,False,False,False,False
410,NonResidential,Hotel,Motif Seattle,1414 4th Ave,Seattle,DOWNTOWN,47.60996,-122.33572,1973,19,59280,272787,Hotel,332067.0,37785552.0,37984148.0,False,Compliant,52,12.516450215714137,False,False,False,False,True,14357.21052631579,False,False,True,False,False,False,False,False,False,False,False,False,False
411,NonResidential,Large Office,Joshua Green Building,1425 4th Avenue,Seattle,DOWNTOWN,47.60991,-122.33687,1910,10,0,130513,Office,87391.0,11651200.0,11792293.0,False,Compliant,115,11.779235779684317,False,False,False,True,False,13051.3,False,False,True,False,False,False,False,False,False,False,False,False,False
412,NonResidential,Small- and Mid-Sized Office,MiKen Building,1417 Fourth Avenue,Seattle,DOWNTOWN,47.60953,-122.33647,1920,8,0,60660,Office,41958.0,2586116.0,2586116.0,False,Compliant,105,11.013056266434749,False,False,True,False,False,7582.5,False,False,True,False,False,False,False,False,False,False,False,False,False
413,NonResidential,Large Office,(ID413) JOSEPH VANCE BLDG,1414 3RD AVE,Seattle,DOWNTOWN,47.60902,-122.33674,1929,14,0,137350,Office,124508.0,6366084.5,6825027.0,False,Compliant,96,11.830294972166737,False,False,False,True,False,9810.714285714286,False,False,True,False,False,False,False,False,False,False,False,False,False
414,NonResidential,Large Office,Onni 1411 Fourth Development LP,1411 4TH AVE,Seattle,DOWNTOWN,47.60923,-122.33625,1929,15,0,151039,Office,125473.0,5446624.0,0.0,False,Compliant,96,11.925299981379327,False,False,False,True,False,10069.266666666666,False,False,True,False,False,False,False,False,False,False,False,False,False
415,NonResidential,Large Office,Century Square - COS Compliance,1501 4th Ave,Seattle,DOWNTOWN,47.61022,-122.33745,1985,30,134662,620338,Office,643083.0,52226204.0,53974556.0,False,Compliant,40,13.338021381788279,False,False,False,False,True,20677.933333333334,False,False,True,False,False,False,False,False,False,False,False,False,False
416,NonResidential,Small- and Mid-Sized Office,Chromer Building,1516 2nd Avenue,Seattle,DOWNTOWN,47.60995,-122.33904,1906,4,0,63540,Office,56747.0,3518459.5,3564626.75,False,Compliant,119,11.059440645817386,False,False,True,False,False,15885.0,False,False,True,False,False,False,False,False,False,False,False,False,False
417,NonResidential,Large Office,Melbourne Tower,1511 3rd Ave,Seattle,DOWNTOWN,47.60987,-122.33824,1927,10,0,130893,Office,87925.0,6962073.0,7163323.5,False,Compliant,98,11.782143114331042,False,False,False,True,False,13089.3,False,False,True,False,False,False,False,False,False,False,False,False,False
418,NonResidential,Mixed Use Property,Harold Poll Building,110 Union Street,Seattle,DOWNTOWN,47.60821,-122.33899,1910,5,0,79920,Office,39960.0,3009463.75,2977095.25,False,Compliant,115,11.288793925756666,False,False,True,False,False,15984.0,False,False,True,False,False,False,False,False,False,False,False,False,False
419,Campus,Mixed Use Property,Main Market,1501 Pike Place,Seattle,DOWNTOWN,47.60881,-122.34119,1908,4,0,137400,Retail Store,44078.0,14940504.0,14879755.0,False,Compliant,117,11.83065893676428,False,False,False,True,False,34350.0,False,False,True,False,False,False,False,False,False,False,False,False,False
420,NonResidential,Other,Meridian (West),1506 6th Ave,Seattle,DOWNTOWN,47.61164,-122.33446,1996,6,86429,61423,Parking,64821.0,9671619.0,9671619.0,False,Compliant,29,11.02555591724058,False,False,True,False,False,10237.166666666666,False,False,True,False,False,False,False,False,False,False,False,False,False
421,NonResidential,Other,Meridian (East),1501 7th Ave,Seattle,DOWNTOWN,47.61185,-122.33421,1996,4,166960,100375,Parking,166960.0,7273155.5,7378420.5,False,Compliant,29,11.516678413839536,False,False,False,True,False,25093.75,False,False,True,False,False,False,False,False,False,False,False,False,False
422,NonResidential,Large Office,Two Union Square,601 Union St.,Seattle,DOWNTOWN,47.61043,-122.33206,1989,56,389860,1215718,Office,1314475.0,49517704.0,50984500.0,False,Compliant,36,14.01084622927756,False,False,False,False,True,21709.25,False,False,True,False,False,False,False,False,False,False,False,False,False
423,NonResidential,Large Office,One Union Square,600 University Street,Seattle,DOWNTOWN,47.60967,-122.33229,1980,36,0,794592,Office,748011.0,26689658.0,27340878.0,False,Compliant,45,13.585585312859951,False,False,False,False,True,22072.0,False,False,True,False,False,False,False,False,False,False,False,False,False
424,NonResidential,Large Office,PARK PLACE OFFICE BLDG (ID424),1200 6th Avenue,Seattle,DOWNTOWN,47.60909,-122.33202,1971,21,93204,363100,Office,342952.0,19397324.0,20421248.0,False,Compliant,54,12.802436311460877,False,False,False,False,True,17290.47619047619,False,False,True,False,False,False,False,False,False,False,False,False,False
425,NonResidential,Large Office,First and Stewart,101 Stewart Street,Seattle,DOWNTOWN,47.61029,-122.34089,1986,12,15140,100717,Office,104788.0,4757299.5,4757299.5,False,Compliant,39,11.520079811491687,False,False,False,True,False,8393.083333333334,False,False,True,False,False,False,False,False,False,False,False,False,False
426,NonResidential,Small- and Mid-Sized Office,World Trade Center West,2200 Alaskan Way,Seattle,DOWNTOWN,47.61116,-122.34748,1999,4,17500,70000,Office,70090.0,4549892.0,4549892.0,False,Compliant,26,11.156264806643742,False,False,True,False,False,17500.0,False,False,True,False,False,False,False,False,False,False,False,False,False
427,NonResidential,Large Office,World Trade Center East-Seattle,2211 Elliott Ave,Seattle,DOWNTOWN,47.6117,-122.34778,1998,11,184776,189629,Office,150969.0,13329024.0,13329024.0,False,Compliant,27,12.152830084134454,False,False,False,True,False,17239.0,False,False,True,False,False,False,False,False,False,False,False,False,False
428,NonResidential,Other,Lenora,120 Lenora,Seattle,DOWNTOWN,47.61252,-122.34351,1985,12,38000,155500,Other,146689.0,14436982.0,14436982.0,False,Compliant,40,11.954407441448915,False,False,False,True,False,12958.333333333334,False,False,True,False,False,False,False,False,False,False,False,False,False
429,NonResidential,Large Office,Terminal Sales Building,1932 1st Avenue,Seattle,DOWNTOWN,47.61108,-122.34217,1923,11,0,102846,Office,93879.0,5327249.5,6047637.0,False,Compliant,102,11.540997725963418,False,False,False,True,False,9349.636363636364,False,False,True,False,False,False,False,False,False,False,False,False,False
430,NonResidential,Small- and Mid-Sized Office,The Marshall Building,2013 4th Avenue,Seattle,DOWNTOWN,47.61304,-122.34059,1925,4,0,52800,Office,38880.0,2429021.0,2500323.75,False,Compliant,100,10.874285408908944,False,False,True,False,False,13200.0,False,False,True,False,False,False,False,False,False,False,False,False,False
432,Campus,Mixed Use Property,Securities Building Campus,1904 Third Avenue,Seattle,DOWNTOWN,47.61229,-122.33903,1913,10,0,258497,Parking,155000.0,20779796.0,21536130.0,False,Compliant,112,12.462643235956783,False,False,False,False,True,25849.7,False,False,True,False,False,False,False,False,False,False,False,False,False
433,NonResidential,Retail Store,(71367A) SEATTLE Macy's,300 PINE STREET,Seattle,DOWNTOWN,47.61098,-122.33815,1929,8,0,861702,Retail Store,509342.0,17666646.0,17666646.0,False,Compliant,96,13.666665942711875,False,False,False,False,True,107712.75,False,False,True,False,False,False,False,False,False,False,False,False,False
434,NonResidential,Other,Benaroya Research Institute at Virginia Mason,1201 9th Ave,Seattle,EAST,47.61,-122.32922,1999,5,97400,109550,Other,206950.0,19295226.0,19105426.0,False,Compliant,26,11.60414547323389,False,False,False,True,False,21910.0,False,False,False,True,False,False,False,False,False,False,False,False,False
436,NonResidential,Other,VM Seattle Hospital & Medical Center - Health Resources Building,909 University Street,Seattle,EAST,47.61048,-122.32837,1988,9,0,46710,Urgent Care/Clinic/Other Outpatient,46710.0,4169431.5,4439795.5,False,Compliant,37,10.75173496195892,False,True,False,False,False,5190.0,False,False,False,True,False,False,False,False,False,False,False,False,False
437,NonResidential,Medical Office,VM Seattle Hospital & Medical Center - Lindeman Pavilion,901 University Street,Seattle,EAST,47.61048,-122.32837,1945,3,104000,162000,Medical Office,162000.0,13911761.0,14009703.0,False,Compliant,80,11.995357787034976,False,False,False,True,False,54000.0,False,False,False,True,False,False,False,False,False,False,False,False,False
438,NonResidential,Medical Office,1101 Madison Tower,1101 Madison,Seattle,EAST,47.60921,-122.32425,1992,14,407795,282363,Medical Office,270384.0,21156670.0,21156670.0,False,Compliant,33,12.550952297721576,False,False,False,False,True,20168.785714285714,False,False,False,True,False,False,False,False,False,False,False,False,False
439,NonResidential,Mixed Use Property,Fisher Plaza - East Building,140 4th Ave N,Seattle,LAKE UNION,47.61915,-122.34857,2001,6,177660,200783,Parking,164332.0,55073120.0,55073120.0,False,Compliant,24,12.20998498235009,False,False,False,False,True,33463.833333333336,False,False,False,False,False,True,False,False,False,False,False,False,False
441,NonResidential,Hotel,Best Western Executive Inn,200 Taylor Ave N,Seattle,LAKE UNION,47.62036,-122.34588,1979,5,29409,79608,Hotel,109017.0,9474745.0,9707963.0,False,Compliant,46,11.284882430767706,False,False,True,False,False,15921.6,False,False,False,False,False,True,False,False,False,False,False,False,False
443,NonResidential,Large Office,Elliott Bay Office Park,300 Elliott Avenue West,Seattle,MAGNOLIA / QUEEN ANNE,47.62177,-122.36158,1981,5,38452,237282,Office,228504.0,16373232.0,16373232.0,False,Compliant,44,12.37700880058246,False,False,False,False,True,47456.4,False,False,False,False,False,False,True,False,False,False,False,False,False
444,NonResidential,Warehouse,FedEX van Terminal,651 S Alaska St,Seattle,GREATER DUWAMISH,47.56064,-122.32522,2001,1,0,123061,Non-Refrigerated Warehouse,123061.0,1987934.625,1987934.625,False,Compliant,24,11.720443572397098,False,False,False,True,False,123061.0,False,False,False,False,True,False,False,False,False,False,False,False,False
446,NonResidential,Distribution Center,Washington State Ferries Building,6000 6th Ave S,Seattle,GREATER DUWAMISH,47.54868,-122.3255,1963,1,0,59090,Distribution Center,40272.0,2756214.75,3153949.5,False,Compliant,62,10.986833907533804,False,False,True,False,False,59090.0,False,False,False,False,True,False,False,False,False,False,False,False,False
447,NonResidential,Warehouse,NWCP-SEA Sylv Bldg,750 S Michigan St,Seattle,GREATER DUWAMISH,47.5471,-122.32406,1963,1,0,106000,Non-Refrigerated Warehouse,106001.0,763364.5,763364.5,False,Compliant,62,11.571203807011969,False,False,False,True,False,106000.0,False,False,False,False,True,False,False,False,False,False,False,False,False
449,NonResidential,Large Office,1551 Eastlake,1551 Eastlake Ave E,Seattle,LAKE UNION,47.63349,-122.32634,1962,3,38400,120200,Office,125779.0,18309150.0,18471858.0,False,Compliant,63,11.696920620516192,False,False,False,True,False,40066.666666666664,False,False,False,False,False,True,False,False,False,False,False,False,False
451,NonResidential,Distribution Center,Frye Distribution Center,660 S. Othello St.,Seattle,GREATER DUWAMISH,47.53764,-122.3232,1960,1,0,119661,Distribution Center,118733.0,775729.1875,775864.1875,False,Compliant,65,11.69242638082741,False,False,False,True,False,119661.0,False,False,False,False,True,False,False,False,False,False,False,False,False
452,NonResidential,Large Office,1144 Eastlake Building,1144 Eastlake Ave East,Seattle,LAKE UNION,47.62958,-122.32826,2001,7,44728,94472,Office,82098.0,4342597.0,4342597.0,False,Compliant,24,11.456069358372018,False,False,True,False,False,13496.0,False,False,False,False,False,True,False,False,False,False,False,False,False
453,NonResidential,Small- and Mid-Sized Office,701 Dexter,701 Dexter Avenue North,Seattle,MAGNOLIA / QUEEN ANNE,47.62566,-122.34287,1984,6,33921,61800,Office,95721.0,3063504.5,3155171.75,False,Compliant,41,11.031674824544641,False,False,True,False,False,10300.0,False,False,False,False,False,False,True,False,False,False,False,False,False
456,NonResidential,Large Office,1100 Dexter-RREEF SeaDPD ID 456,1100 Dexter Avenue North,Seattle,MAGNOLIA / QUEEN ANNE,47.62929,-122.34194,1996,5,115228,98055,Office,105563.0,5661689.5,5661689.5,False,Compliant,29,11.493294023021,False,False,True,False,False,19611.0,False,False,False,False,False,False,True,False,False,False,False,False,False
457,NonResidential,Large Office,1441 N. 34th Street,1441 N 34TH ST,Seattle,LAKE UNION,47.64776,-122.33924,2001,3,47656,56041,Office,63199.0,11319836.0,11672252.0,False,Compliant,24,10.933856688607833,False,False,True,False,False,18680.333333333332,False,False,False,False,False,True,False,False,False,False,False,False,False
458,NonResidential,Small- and Mid-Sized Office,Northgate Exec Center B,155 NE 100th Street,Seattle,NORTH,47.70105,-122.32659,1974,5,0,74880,Office,71751.0,5134607.5,5531460.0,False,Compliant,51,11.223655465763155,False,False,True,False,False,14976.0,False,False,False,False,False,False,False,True,False,False,False,False,False
459,NonResidential,Small- and Mid-Sized Office,Northgate Exec Center C,9725 3rd Avenue,Seattle,NORTH,47.69999,-122.32663,1979,6,0,88774,Office,85339.0,6029121.5,6353294.0,False,Compliant,46,11.393860357811288,False,False,True,False,False,14795.666666666666,False,False,False,False,False,False,False,True,False,False,False,False,False
460,NonResidential,Large Office,Northgate Plaza,9709 3rd Ave NE,Seattle,NORTH,47.69917,-122.3268,1983,5,0,122250,Office,91281.0,5535626.0,5535626.0,False,Compliant,42,11.713831587262764,False,False,False,True,False,24450.0,False,False,False,False,False,False,False,True,False,False,False,False,False
461,NonResidential,Small- and Mid-Sized Office,Northgate Office Building,9750 3rd Ave NE,Seattle,NORTH,47.70063,-122.32487,1979,4,0,53730,Office,53730.0,4742869.0,4742869.0,False,Compliant,46,10.891745395126074,False,False,True,False,False,13432.5,False,False,False,False,False,False,False,True,False,False,False,False,False
462,NonResidential,Small- and Mid-Sized Office,Delridge Building,4045 Delridge Way,Seattle,DELRIDGE,47.5671,-122.36416,1960,3,0,55593,Office,55593.0,4224872.5,4414587.0,False,Compliant,65,10.92583056074651,False,False,True,False,False,18531.0,False,True,False,False,False,False,False,False,False,False,False,False,False
463,NonResidential,Large Office,425 Pontius,425 Pontius Ave N,Seattle,LAKE UNION,47.62269,-122.33224,1982,4,60960,73096,Office,72066.0,4695139.0,4899096.0,False,Compliant,43,11.199542605224037,False,False,True,False,False,18274.0,False,False,False,False,False,True,False,False,False,False,False,False,False
464,NonResidential,Retail Store,Costco #0001 Seattle,4401 4th Ave South,Seattle,GREATER DUWAMISH,47.5653,-122.33076,2005,1,0,158415,Retail Store,158415.0,22394416.0,23293664.0,False,Compliant,20,11.972979763362297,False,False,False,True,False,158415.0,False,False,False,False,True,False,False,False,False,False,False,False,False
465,NonResidential,Large Office,1000 Denny Building,1000 Denny Way,Seattle,LAKE UNION,47.61907,-122.33651,1929,8,0,287819,Office,155985.0,48406556.0,48037000.0,False,Compliant,96,12.570090563724165,False,False,False,False,True,35977.375,False,False,False,False,False,True,False,False,False,False,False,False,False
492,NonResidential,Small- and Mid-Sized Office,Queen Anne Plaza,201 Queen Anne Ave N,Seattle,MAGNOLIA / QUEEN ANNE,47.62003,-122.35706,1985,4,28800,58195,Office,58195.0,2991674.75,3018140.75,False,Compliant,40,10.97157190283528,False,False,True,False,False,14548.75,False,False,False,False,False,False,True,False,False,False,False,False,False
467,NonResidential,Retail Store,70100608-Ballard,915 NW 45th Street,Seattle,BALLARD,47.66057,-122.36857,1999,1,0,164437,Retail Store,102653.0,18390344.0,19031574.0,False,Compliant,26,12.010288878446973,False,False,False,True,False,164437.0,False,False,False,False,False,False,False,False,False,False,False,False,False
468,NonResidential,Large Office,Interurban Exchange II - SEDO,535 Terry Ave. North,Seattle,LAKE UNION,47.62402,-122.33755,2009,5,66234,118248,Office,118016.0,5671256.0,5869476.5,False,Compliant,16,11.680547849658803,False,False,False,True,False,23649.6,False,False,False,False,False,True,False,False,False,False,False,False,False
469,NonResidential,Laboratory,Rosen Building - SEDO,960 Republican St.,Seattle,LAKE UNION,47.62348,-122.33743,1928,3,0,55200,Laboratory,54880.0,11594121.0,12072969.0,False,Compliant,97,10.918736348043124,False,False,True,False,False,18400.0,False,False,False,False,False,True,False,False,False,False,False,False,False
470,NonResidential,Laboratory,401 Terry (ID470),401 TERRY AVE N,Seattle,LAKE UNION,47.62254,-122.33753,2003,4,111793,129366,Laboratory,176171.0,33713876.0,34746128.0,False,Compliant,22,11.77040860534107,False,False,False,True,False,32341.5,False,False,False,False,False,True,False,False,False,False,False,False,False
471,NonResidential,Large Office,428 Westlake,428 Westlake Avenue N.,Seattle,LAKE UNION,47.62286,-122.33804,2004,6,52582,86700,Office,79384.0,3238216.0,3238216.0,False,Compliant,21,11.370220696727491,False,False,True,False,False,14450.0,False,False,False,False,False,True,False,False,False,False,False,False,False
473,NonResidential,Large Office,City Place II - SEDO,500 Boren Ave. N.,Seattle,LAKE UNION,47.62383,-122.3356,2009,5,98700,172371,Office,168132.0,7851334.5,7960023.0,False,Compliant,16,12.057410211028271,False,False,False,True,False,34474.2,False,False,False,False,False,True,False,False,False,False,False,False,False
474,NonResidential,Warehouse,08185-Lake Union,700 Fairview Ave N,Seattle,LAKE UNION,47.62572,-122.33389,1914,5,0,127800,Non-Refrigerated Warehouse,127800.0,2767491.0,2811924.5,False,Compliant,111,11.758229645621093,False,False,False,True,False,25560.0,False,False,False,False,False,True,False,False,False,False,False,False,False
475,NonResidential,Large Office,Arnold Building,1100 Fairview Ave No.,Seattle,LAKE UNION,47.62855,-122.33035,2002,5,206597,353919,Office,372503.0,30083496.0,30401640.0,False,Compliant,23,12.776826177876051,False,False,False,False,True,70783.8,False,False,False,False,False,True,False,False,False,False,False,False,False
476,NonResidential,Large Office,Yale,823 Yale Ave N.,Seattle,LAKE UNION,47.62621,-122.33128,2001,6,95000,131592,Office,131592.0,11963428.0,11812678.0,False,Compliant,24,11.787469104969274,False,False,False,True,False,21932.0,False,False,False,False,False,True,False,False,False,False,False,False,False
477,Campus,Other,Weintraub/Hutchinson/Thomas,1100 Fairview Ave N,Seattle,LAKE UNION,47.62855,-122.33035,1997,5,0,535947,Other,535947.0,131373880.0,137106112.0,False,Compliant,28,13.191792420421313,False,False,False,False,True,107189.4,False,False,False,False,False,True,False,False,False,False,False,False,False
480,NonResidential,Mixed Use Property,307 Westlake - SEDO,307 Westlake Ave. N.,Seattle,LAKE UNION,47.62121,-122.33885,2003,5,50654,109046,Other,72407.0,31371618.0,31915486.0,False,Compliant,22,11.599534260934991,False,False,False,True,False,21809.2,False,False,False,False,False,True,False,False,False,False,False,False,False
481,NonResidential,Large Office,Westlake Terry - East SEDO,321 Terry Ave. N.,Seattle,LAKE UNION,47.62137,-122.33744,2006,4,73673,136143,Office,113803.0,6917478.5,6917478.5,False,Compliant,19,11.82146842808934,False,False,False,True,False,34035.75,False,False,False,False,False,True,False,False,False,False,False,False,False
482,NonResidential,Large Office,Westlake Terry - West SEDO,320 Westlake Ave. N.,Seattle,LAKE UNION,47.62131,-122.33814,2006,6,109905,193198,Office,178628.0,7519466.5,7554767.0,False,Compliant,19,12.171476024763722,False,False,False,True,False,32199.666666666668,False,False,False,False,False,True,False,False,False,False,False,False,False
484,NonResidential,Mixed Use Property,Fred Rogers Building,1020 John St.,Seattle,LAKE UNION,47.62002,-122.33687,1954,3,0,67380,Non-Refrigerated Warehouse,29732.0,2755829.0,3066491.25,False,Compliant,71,11.118118358049584,False,False,True,False,False,22460.0,False,False,False,False,False,True,False,False,False,False,False,False,False
487,NonResidential,Laboratory,UW Medicine Research Phase I,850 Republican St.,Seattle,LAKE UNION,47.62405,-122.34036,1963,4,0,102235,Laboratory,103135.0,24395228.0,24903228.0,False,Compliant,62,11.53503914521534,False,False,False,True,False,25558.75,False,False,False,False,False,True,False,False,False,False,False,False,False
488,NonResidential,Mixed Use Property,UW Medicine Research Phase II,850 Republican Street,Seattle,LAKE UNION,47.62405,-122.34036,2008,5,153684,282813,Laboratory,175364.0,45252356.0,47629656.0,False,Compliant,17,12.55254471672972,False,False,False,False,True,56562.6,False,False,False,False,False,True,False,False,False,False,False,False,False
489,NonResidential,Small- and Mid-Sized Office,200 West Thomas,200 West Thomas St,Seattle,MAGNOLIA / QUEEN ANNE,47.62115,-122.3597,1974,5,20826,67236,Office,64752.0,3415561.25,3558562.5,False,Compliant,51,11.115978970227394,False,False,True,False,False,13447.2,False,False,False,False,False,False,True,False,False,False,False,False,False
490,NonResidential,Small- and Mid-Sized Office,North Tower,100 West Harrison,Seattle,MAGNOLIA / QUEEN ANNE,47.62224,-122.3585,1972,5,20416,66762,Office,66648.0,3632613.75,3838006.75,False,Compliant,53,11.108904313854207,False,False,True,False,False,13352.4,False,False,False,False,False,False,True,False,False,False,False,False,False
491,NonResidential,Small- and Mid-Sized Office,South Tower,100 West Harrison,Seattle,MAGNOLIA / QUEEN ANNE,47.62224,-122.3585,1970,5,20416,66762,Office,66747.0,3493093.75,3705629.0,False,Compliant,55,11.108904313854207,False,False,True,False,False,13352.4,False,False,False,False,False,False,True,False,False,False,False,False,False
493,NonResidential,Small- and Mid-Sized Office,200 First Ave W,200 1ST AVE W,Seattle,MAGNOLIA / QUEEN ANNE,47.62014,-122.35768,1971,5,21600,66400,Office,69691.0,3484915.5,0.0,False,Compliant,54,11.103467395592086,False,False,True,False,False,13280.0,False,False,False,False,False,False,True,False,False,False,False,False,False
494,NonResidential,Medical Office,4225 Roosevelt 2ros4225,4225 Roosevelt Way NE,Seattle,NORTHEAST,47.65821,-122.31831,1988,4,88405,108344,Medical Office,108344.0,19165116.0,19718338.0,False,Compliant,37,11.593075859153057,False,False,False,True,False,27086.0,False,False,False,False,False,False,False,False,True,False,False,False,False
495,NonResidential,Medical Office,4245 Roosevelt 2ros4245,4245 Roosevelt Way NE,Seattle,NORTHEAST,47.65884,-122.3183,1994,4,95281,95995,Medical Office,95995.0,8422861.0,8422861.0,False,Compliant,31,11.472061802915228,False,False,True,False,False,23998.75,False,False,False,False,False,False,False,False,True,False,False,False,False
496,NonResidential,Self-Storage Facility,Market St Center,2811 NW Market Street,Seattle,BALLARD,47.66838,-122.3931,1946,2,0,111445,5697472.5,6076957.0,,,163.83,,79,11.621295447636063,False,False,False,True,False,55722.5,False,False,False,False,False,False,False,False,False,False,False,False,False
497,NonResidential,Warehouse,08176-West Seattle,2964 Sw Avalon Way,Seattle,SOUTHWEST,47.56885,-122.37121,1997,4,0,98475,Non-Refrigerated Warehouse,98475.0,1090496.625,1178591.625,False,Compliant,28,11.497568142649186,False,False,True,False,False,24618.75,False,False,False,False,False,False,False,False,False,False,False,False,True
498,NonResidential,Hospital,SCCA,825 Eastlake Ave E,Seattle,LAKE UNION,47.62667,-122.32965,2000,7,150455,201075,Hospital (General Medical & Surgical),215602.0,42709624.0,43178016.0,False,Compliant,25,12.211438225028584,False,False,False,False,True,28725.0,False,False,False,False,False,True,False,False,False,False,False,False,False
500,NonResidential,Supermarket / Grocery Store,70100179-Lake City,13000 Lake City Way NE,Seattle,NORTH,47.7237,-122.29232,1995,2,187878,121087,Supermarket/Grocery Store,121087.0,14512786.0,14843382.0,False,Compliant,30,11.704272832971496,False,False,False,True,False,60543.5,False,False,False,False,False,False,False,True,False,False,False,False,False
503,NonResidential,Supermarket / Grocery Store,RESTAURANT DEPOT SEATTLE (ID503),3670 E MARGINAL WAY S,Seattle,GREATER DUWAMISH,47.56895,-122.33775,2008,1,0,63225,Supermarket/Grocery Store,63225.0,6522551.5,6522551.5,False,Compliant,17,11.054470887941358,False,False,True,False,False,63225.0,False,False,False,False,True,False,False,False,False,False,False,False,False
504,Nonresidential COS,Other,Westbridge,4209 W Marginal Way SW,Seattle,DELRIDGE,47.56548,-122.35378,1955,1,0,113780,Other - Services,91532.0,3574542.25,4021869.0,False,Compliant,70,11.642030827156859,False,False,False,True,False,113780.0,False,True,False,False,False,False,False,False,False,False,False,False,False
507,NonResidential,Warehouse,Skyline-East Marginal,4401 E Marginal Way S,Seattle,GREATER DUWAMISH,47.56419,-122.34262,1999,1,0,243044,Non-Refrigerated Warehouse,325424.0,1396082.25,1396082.25,False,Compliant,26,12.401001890363212,False,False,False,False,True,243044.0,False,False,False,False,True,False,False,False,False,False,False,False,False
508,NonResidential,Other,The Park View Building,601 N 34th St,Seattle,LAKE UNION,47.64942,-122.35024,2001,3,156312,123940,Parking,156312.0,11521702.0,11521702.0,False,Compliant,24,11.727560924903752,False,False,False,True,False,41313.333333333336,False,False,False,False,False,True,False,False,False,False,False,False,False
513,NonResidential,Other,Q13 FOX,1813 Westlake Ave N,Seattle,MAGNOLIA / QUEEN ANNE,47.63549,-122.34103,1952,3,12998,53464,Other,72000.0,6876439.5,6876439.5,False,Compliant,73,10.886782513190758,False,False,True,False,False,17821.333333333332,False,False,False,False,False,False,True,False,False,False,False,False,False
